POSTAL_CODE,PROVINCE_ENGLISH,PROVINCE_THAI,DISTRICT_ENGLISH,DISTRICT_THAI,SUB_DISTRICT_ENGLISH,SUB_DISTRICT_THAI,LATITUDE,LONGITUDE
10200,Bangkok,กรุงเทพมหานคร,Phra Nakhon,พระนคร,Phra Borom Maha Ratchawang,พระบรมมหาราชวัง,13.751,100.492
10200,Bangkok,กรุงเทพมหานคร,Phra Nakhon,พระนคร,Wang Burapha Phirom,วังบูรพาภิรมย์,13.744,100.499
10200,Bangkok,กรุงเทพมหานคร,Phra Nakhon,พระนคร,Wat Ratchabophit,วัดราชบพิธ,13.75,100.499
10200,Bangkok,กรุงเทพมหานคร,Phra Nakhon,พระนคร,Samran Rat,สำราญราษฎร์,13.751,100.503
10200,Bangkok,กรุงเทพมหานคร,Phra Nakhon,พระนคร,San Chao Pho Suea,ศาลเจ้าพ่อเสือ,13.754,100.497
10200,Bangkok,กรุงเทพมหานคร,Phra Nakhon,พระนคร,Sao Chingcha,เสาชิงช้า,13.753,100.5
10200,Bangkok,กรุงเทพมหานคร,Phra Nakhon,พระนคร,Bowon Niwet,บวรนิเวศ,13.757,100.501
10200,Bangkok,กรุงเทพมหานคร,Phra Nakhon,พระนคร,Talat Yot,ตลาดยอด,13.76,100.498
10200,Bangkok,กรุงเทพมหานคร,Phra Nakhon,พระนคร,Chana Songkhram,ชนะสงคราม,13.762,100.495
10200,Bangkok,กรุงเทพมหานคร,Phra Nakhon,พระนคร,Ban Phan Thom,บ้านพานถม,13.762,100.503
10200,Bangkok,กรุงเทพมหานคร,Phra Nakhon,พระนคร,Bang Khun Phrom,บางขุนพรหม,13.765,100.505
10200,Bangkok,กรุงเทพมหานคร,Phra Nakhon,พระนคร,Wat Sam Phraya,วัดสามพระยา,13.768,100.499
10300,Bangkok,กรุงเทพมหานคร,Dusit,ดุสิต,Dusit,ดุสิต,13.772,100.513
10300,Bangkok,กรุงเทพมหานคร,Dusit,ดุสิต,Wachira Phayaban,วชิรพยาบาล,13.778,100.505
10300,Bangkok,กรุงเทพมหานคร,Dusit,ดุสิต,Suan Chitlada,สวนจิตรลดา,13.767,100.52
10300,Bangkok,กรุงเทพมหานคร,Dusit,ดุสิต,Si Yaek Mahanak,สี่แยกมหานาค,13.758,100.517
10300,Bangkok,กรุงเทพมหานคร,Dusit,ดุสิต,Thanon Nakhon Chai Si,ถนนนครไชยศรี,13.789,100.522
10530,Bangkok,กรุงเทพมหานคร,Nong Chok,หนองจอก,Krathum Rai,กระทุ่มราย,13.823,100.897
10530,Bangkok,กรุงเทพมหานคร,Nong Chok,หนองจอก,Nong Chok,หนองจอก,13.869,100.885
10530,Bangkok,กรุงเทพมหานคร,Nong Chok,หนองจอก,Khlong Sip,คลองสิบ,13.914,100.82
10530,Bangkok,กรุงเทพมหานคร,Nong Chok,หนองจอก,Khlong Sip Song,คลองสิบสอง,13.914,100.88
10530,Bangkok,กรุงเทพมหานคร,Nong Chok,หนองจอก,Khok Faet,โคกแฝด,13.84,100.836
10530,Bangkok,กรุงเทพมหานคร,Nong Chok,หนองจอก,Khu Fang Nuea,คู้ฝั่งเหนือ,13.872,100.81
10530,Bangkok,กรุงเทพมหานคร,Nong Chok,หนองจอก,Lam Phak Chi,ลำผักชี,13.797,100.844
10530,Bangkok,กรุงเทพมหานคร,Nong Chok,หนองจอก,Lam Toiting,ลำต้อยติ่ง,13.781,100.877
10500,Bangkok,กรุงเทพมหานคร,Bang Rak,บางรัก,Maha Phruettharam,มหาพฤฒาราม,13.734,100.52
10500,Bangkok,กรุงเทพมหานคร,Bang Rak,บางรัก,Si Lom,สีลม,13.73,100.525
10500,Bangkok,กรุงเทพมหานคร,Bang Rak,บางรัก,Suriyawong,สุริยวงศ์,13.724,100.53
10500,Bangkok,กรุงเทพมหานคร,Bang Rak,บางรัก,Bang Rak,บางรัก,13.727,100.527
10500,Bangkok,กรุงเทพมหานคร,Bang Rak,บางรัก,Si Phraya,สี่พระยา,13.725,100.514
10220,Bangkok,กรุงเทพมหานคร,Bang Khen,บางเขน,Anusawari,อนุสาวรีย์,13.868,100.606
10220,Bangkok,กรุงเทพมหานคร,Bang Khen,บางเขน,Tha Raeng,ท่าแร้ง,13.866,100.65
10240,Bangkok,กรุงเทพมหานคร,Bang Kapi,บางกะปิ,Khlong Chan,คลองจั่น,13.786,100.635
10240,Bangkok,กรุงเทพมหานคร,Bang Kapi,บางกะปิ,Hua Mak,หัวหมาก,13.756,100.66
10330,Bangkok,กรุงเทพมหานคร,Pathum Wan,ปทุมวัน,Rong Mueang,รองเมือง,13.744,100.52
10330,Bangkok,กรุงเทพมหานคร,Pathum Wan,ปทุมวัน,Wang Mai,วังใหม่,13.742,100.526
10330,Bangkok,กรุงเทพมหานคร,Pathum Wan,ปทุมวัน,Pathum Wan,ปทุมวัน,13.74,100.535
10330,Bangkok,กรุงเทพมหานคร,Pathum Wan,ปทุมวัน,Lumphini,ลุมพินี,13.736,100.546
10100,Bangkok,กรุงเทพมหานคร,Pom Prap Sattru Phai,ป้อมปราบศัตรูพ่าย,Pom Prap,ป้อมปราบ,13.743,100.514
10100,Bangkok,กรุงเทพมหานคร,Pom Prap Sattru Phai,ป้อมปราบศัตรูพ่าย,Wat Thep Sirin,วัดเทพศิรินทร์,13.749,100.512
10100,Bangkok,กรุงเทพมหานคร,Pom Prap Sattru Phai,ป้อมปราบศัตรูพ่าย,Khlong Maha Nak,คลองมหานาค,13.753,100.513
10100,Bangkok,กรุงเทพมหานคร,Pom Prap Sattru Phai,ป้อมปราบศัตรูพ่าย,Ban Bat,บ้านบาตร,13.752,100.507
10100,Bangkok,กรุงเทพมหานคร,Pom Prap Sattru Phai,ป้อมปราบศัตรูพ่าย,Wat Sommanat,วัดโสมนัส,13.759,100.511
10260,Bangkok,กรุงเทพมหานคร,Phra Khanong,พระโขนง,Bang Chak,บางจาก,13.692,100.626
10260,Bangkok,กรุงเทพมหานคร,Phra Khanong,พระโขนง,Phra Khanong Tai,พระโขนงใต้,,
10510,Bangkok,กรุงเทพมหานคร,Min Buri,มีนบุรี,Min Buri,มีนบุรี,13.804,100.723
10510,Bangkok,กรุงเทพมหานคร,Min Buri,มีนบุรี,Saen Saep,แสนแสบ,13.812,100.774
10520,Bangkok,กรุงเทพมหานคร,Lat Krabang,ลาดกระบัง,Lat Krabang,ลาดกระบัง,13.723,100.771
10520,Bangkok,กรุงเทพมหานคร,Lat Krabang,ลาดกระบัง,Khlong Song Ton Nun,คลองสองต้นนุ่น,13.753,100.723
10520,Bangkok,กรุงเทพมหานคร,Lat Krabang,ลาดกระบัง,Khlong Sam Prawet,คลองสามประเวศ,13.753,100.754
10520,Bangkok,กรุงเทพมหานคร,Lat Krabang,ลาดกระบัง,Lam Pla Thio,ลำปลาทิว,13.765,100.817
10520,Bangkok,กรุงเทพมหานคร,Lat Krabang,ลาดกระบัง,Thap Yao,ทับยาว,13.728,100.815
10520,Bangkok,กรุงเทพมหานคร,Lat Krabang,ลาดกระบัง,Khum Thong,ขุมทอง,13.736,100.855
10120,Bangkok,กรุงเทพมหานคร,Yan Nawa,ยานนาวา,Chong Nonsi,ช่องนนทรี,13.682,100.533
10120,Bangkok,กรุงเทพมหานคร,Yan Nawa,ยานนาวา,Bang Phongphang,บางโพงพาง,13.697,100.544
10100,Bangkok,กรุงเทพมหานคร,Samphanthawong,สัมพันธวงศ์,Chakkrawat,จักรวรรดิ,13.741,100.504
10100,Bangkok,กรุงเทพมหานคร,Samphanthawong,สัมพันธวงศ์,Samphanthawong,สัมพันธวงศ์,13.739,100.511
10100,Bangkok,กรุงเทพมหานคร,Samphanthawong,สัมพันธวงศ์,Talat Noi,ตลาดน้อย,13.734,100.513
10400,Bangkok,กรุงเทพมหานคร,Phaya Thai,พญาไท,Sam Sen Nai,สามเสนใน,13.782,100.545
10400,Bangkok,กรุงเทพมหานคร,Phaya Thai,พญาไท,Phaya Thai,พญาไท,,
10600,Bangkok,กรุงเทพมหานคร,Thon Buri,ธนบุรี,Wat Kanlaya,วัดกัลยาณ์,13.737,100.493
10600,Bangkok,กรุงเทพมหานคร,Thon Buri,ธนบุรี,Hiran Ruchi,หิรัญรูจี,13.731,100.49
10600,Bangkok,กรุงเทพมหานคร,Thon Buri,ธนบุรี,Bang Yi Ruea,บางยี่เรือ,13.72,100.482
10600,Bangkok,กรุงเทพมหานคร,Thon Buri,ธนบุรี,Bukkhalo,บุคคโล,13.707,100.486
10600,Bangkok,กรุงเทพมหานคร,Thon Buri,ธนบุรี,Talat Phlu,ตลาดพลู,13.715,100.473
10600,Bangkok,กรุงเทพมหานคร,Thon Buri,ธนบุรี,Dao Khanong,ดาวคะนอง,,
10600,Bangkok,กรุงเทพมหานคร,Thon Buri,ธนบุรี,Samre,สำเหร่,,
10600,Bangkok,กรุงเทพมหานคร,Bangkok Yai,บางกอกใหญ่,Wat Arun,วัดอรุณ,13.743,100.486
10600,Bangkok,กรุงเทพมหานคร,Bangkok Yai,บางกอกใหญ่,Wat Tha Phra,วัดท่าพระ,13.733,100.475
10310,Bangkok,กรุงเทพมหานคร,Huai Khwang,ห้วยขวาง,Huai Khwang,ห้วยขวาง,13.769,100.577
10310,Bangkok,กรุงเทพมหานคร,Huai Khwang,ห้วยขวาง,Bang Kapi,บางกะปิ,13.752,100.586
10310,Bangkok,กรุงเทพมหานคร,Huai Khwang,ห้วยขวาง,Sam Sen Nok,สามเสนนอก,13.796,100.579
10600,Bangkok,กรุงเทพมหานคร,Khlong San,คลองสาน,Somdet Chao Phraya,สมเด็จเจ้าพระยา,13.731,100.497
10600,Bangkok,กรุงเทพมหานคร,Khlong San,คลองสาน,Khlong San,คลองสาน,13.735,100.504
10600,Bangkok,กรุงเทพมหานคร,Khlong San,คลองสาน,Bang Lamphu Lang,บางลำภูล่าง,13.715,100.501
10600,Bangkok,กรุงเทพมหานคร,Khlong San,คลองสาน,Khlong Ton Sai,คลองต้นไทร,13.725,100.508
10170,Bangkok,กรุงเทพมหานคร,Taling Chan,ตลิ่งชัน,Khlong Chak Phra,คลองชักพระ,13.76,100.456
10170,Bangkok,กรุงเทพมหานคร,Taling Chan,ตลิ่งชัน,Taling Chan,ตลิ่งชัน,13.789,100.459
10170,Bangkok,กรุงเทพมหานคร,Taling Chan,ตลิ่งชัน,Chimphli,ฉิมพลี,13.786,100.432
10170,Bangkok,กรุงเทพมหานคร,Taling Chan,ตลิ่งชัน,Bang Phrom,บางพรม,13.752,100.442
10170,Bangkok,กรุงเทพมหานคร,Taling Chan,ตลิ่งชัน,Bang Ramat,บางระมาด,13.767,100.431
10170,Bangkok,กรุงเทพมหานคร,Taling Chan,ตลิ่งชัน,Bang Chueak Nang,บางเชือกหนัง,13.751,100.419
10700,Bangkok,กรุงเทพมหานคร,Bangkok Noi,บางกอกน้อย,Sirirat,ศิริราช,13.759,100.481
10700,Bangkok,กรุงเทพมหานคร,Bangkok Noi,บางกอกน้อย,Ban Chang Lo,บ้านช่างหล่อ,13.752,100.477
10700,Bangkok,กรุงเทพมหานคร,Bangkok Noi,บางกอกน้อย,Bang Khun Non,บางขุนนนท์,13.774,100.466
10700,Bangkok,กรุงเทพมหานคร,Bangkok Noi,บางกอกน้อย,Bang Khun Si,บางขุนศรี,13.76,100.463
10700,Bangkok,กรุงเทพมหานคร,Bangkok Noi,บางกอกน้อย,Arun Ammarin,อรุณอมรินทร์,13.772,100.477
10150,Bangkok,กรุงเทพมหานคร,Bang Khun Thian,บางขุนเทียน,Tha Kham,ท่าข้าม,13.555,100.434
10150,Bangkok,กรุงเทพมหานคร,Bang Khun Thian,บางขุนเทียน,Samae Dam,แสมดำ,13.605,100.395
10160,Bangkok,กรุงเทพมหานคร,Phasi Charoen,ภาษีเจริญ,Bang Wa,บางหว้า,13.714,100.443
10160,Bangkok,กรุงเทพมหานคร,Phasi Charoen,ภาษีเจริญ,Bang Duan,บางด้วน,13.723,100.437
10160,Bangkok,กรุงเทพมหานคร,Phasi Charoen,ภาษีเจริญ,Bang Chak,บางจาก,13.727,100.45
10160,Bangkok,กรุงเทพมหานคร,Phasi Charoen,ภาษีเจริญ,Bang Waek,บางแวก,13.736,100.445
10160,Bangkok,กรุงเทพมหานคร,Phasi Charoen,ภาษีเจริญ,Khlong Khwang,คลองขวาง,13.738,100.423
10160,Bangkok,กรุงเทพมหานคร,Phasi Charoen,ภาษีเจริญ,Pak Khlong Phasi Charoen,ปากคลองภาษีเจริญ,13.722,100.464
10160,Bangkok,กรุงเทพมหานคร,Phasi Charoen,ภาษีเจริญ,Khuha Sawan,คูหาสวรรค์,13.727,100.457
10160,Bangkok,กรุงเทพมหานคร,Nong Khaem,หนองแขม,Nong Khaem,หนองแขม,13.68,100.358
10160,Bangkok,กรุงเทพมหานคร,Nong Khaem,หนองแขม,Nong Khang Phlu,หนองค้างพลู,13.714,100.351
10140,Bangkok,กรุงเทพมหานคร,Rat Burana,ราษฎร์บูรณะ,Rat Burana,ราษฎร์บูรณะ,13.67,100.51
10140,Bangkok,กรุงเทพมหานคร,Rat Burana,ราษฎร์บูรณะ,Bang Pa Kok,บางปะกอก,13.675,100.491
10700,Bangkok,กรุงเทพมหานคร,Bang Phlat,บางพลัด,Bang Phlat,บางพลัด,13.791,100.487
10700,Bangkok,กรุงเทพมหานคร,Bang Phlat,บางพลัด,Bang O,บางอ้อ,13.802,100.512
10700,Bangkok,กรุงเทพมหานคร,Bang Phlat,บางพลัด,Bang Bamru,บางบำหรุ,13.781,100.482
10700,Bangkok,กรุงเทพมหานคร,Bang Phlat,บางพลัด,Bang Yi Khan,บางยี่ขัน,13.774,100.492
10400,Bangkok,กรุงเทพมหานคร,Din Daeng,ดินแดง,Din Daeng,ดินแดง,13.778,100.567
10400,Bangkok,กรุงเทพมหานคร,Din Daeng,ดินแดง,Ratchadaphisek,รัชดาภิเษก,,
10240,Bangkok,กรุงเทพมหานคร,Bueng Kum,บึงกุ่ม,Khlong Kum,คลองกุ่ม,13.808,100.65
10240,Bangkok,กรุงเทพมหานคร,Bueng Kum,บึงกุ่ม,Nawamin,นวมินทร์,,
10230,Bangkok,กรุงเทพมหานคร,Bueng Kum,บึงกุ่ม,Nuan Chan,นวลจันทร์,,
10120,Bangkok,กรุงเทพมหานคร,Sathon,สาทร,Thung Wat Don,ทุ่งวัดดอน,13.71,100.532
10120,Bangkok,กรุงเทพมหานคร,Sathon,สาทร,Yan Nawa,ยานนาวา,13.714,100.514
10120,Bangkok,กรุงเทพมหานคร,Sathon,สาทร,Thung Maha Mek,ทุ่งมหาเมฆ,13.718,100.541
10800,Bangkok,กรุงเทพมหานคร,Bang Sue,บางซื่อ,Bang Sue,บางซื่อ,13.82,100.529
10800,Bangkok,กรุงเทพมหานคร,Bang Sue,บางซื่อ,Wong Sawang,วงศ์สว่าง,,
10900,Bangkok,กรุงเทพมหานคร,Chatuchak,จตุจักร,Lat Yao,ลาดยาว,13.826,100.565
10900,Bangkok,กรุงเทพมหานคร,Chatuchak,จตุจักร,Sena Nikhom,เสนานิคม,,
10900,Bangkok,กรุงเทพมหานคร,Chatuchak,จตุจักร,Chan Kasem,จันทรเกษม,,
10900,Bangkok,กรุงเทพมหานคร,Chatuchak,จตุจักร,Chom Phon,จอมพล,,
10900,Bangkok,กรุงเทพมหานคร,Chatuchak,จตุจักร,Chatuchak,จตุจักร,,
10120,Bangkok,กรุงเทพมหานคร,Bang Kho Laem,บางคอแหลม,Bang Kho Laem,บางคอแหลม,13.696,100.494
10120,Bangkok,กรุงเทพมหานคร,Bang Kho Laem,บางคอแหลม,Wat Phraya Krai,วัดพระยาไกร,13.706,100.508
10120,Bangkok,กรุงเทพมหานคร,Bang Kho Laem,บางคอแหลม,Bang Khlo,บางโคล่,13.694,100.516
10250,Bangkok,กรุงเทพมหานคร,Prawet,ประเวศ,Prawet,ประเวศ,13.719,100.664
10250,Bangkok,กรุงเทพมหานคร,Prawet,ประเวศ,Nong Bon,หนองบอน,13.687,100.656
10250,Bangkok,กรุงเทพมหานคร,Prawet,ประเวศ,Dok Mai,ดอกไม้,13.68,100.689
10110,Bangkok,กรุงเทพมหานคร,Khlong Toei,คลองเตย,Khlong Toei,คลองเตย,13.71,100.57
10110,Bangkok,กรุงเทพมหานคร,Khlong Toei,คลองเตย,Khlong Tan,คลองตัน,13.723,100.571
10110,Bangkok,กรุงเทพมหานคร,Khlong Toei,คลองเตย,Phra Khanong,พระโขนง,13.707,100.595
10250,Bangkok,กรุงเทพมหานคร,Suan Luang,สวนหลวง,Suan Luang,สวนหลวง,13.726,100.628
10250,Bangkok,กรุงเทพมหานคร,Suan Luang,สวนหลวง,On Nut,อ่อนนุช,,
10250,Bangkok,กรุงเทพมหานคร,Suan Luang,สวนหลวง,Phatthanakan,พัฒนาการ,,
10150,Bangkok,กรุงเทพมหานคร,Chom Thong,จอมทอง,Bang Khun Thian,บางขุนเทียน,13.694,100.45
10150,Bangkok,กรุงเทพมหานคร,Chom Thong,จอมทอง,Bang Kho,บางค้อ,13.702,100.476
10150,Bangkok,กรุงเทพมหานคร,Chom Thong,จอมทอง,Bang Mot,บางมด,13.672,100.468
10150,Bangkok,กรุงเทพมหานคร,Chom Thong,จอมทอง,Chom Thong,จอมทอง,13.693,100.468
10210,Bangkok,กรุงเทพมหานคร,Don Mueang,ดอนเมือง,Si Kan,สีกัน,13.925,100.593
10210,Bangkok,กรุงเทพมหานคร,Don Mueang,ดอนเมือง,Don Mueang,ดอนเมือง,,
10210,Bangkok,กรุงเทพมหานคร,Don Mueang,ดอนเมือง,Sanam Bin,สนามบิน,,
10400,Bangkok,กรุงเทพมหานคร,Ratchathewi,ราชเทวี,Thung Phaya Thai,ทุ่งพญาไท,13.763,100.53
10400,Bangkok,กรุงเทพมหานคร,Ratchathewi,ราชเทวี,Thanon Phaya Thai,ถนนพญาไท,13.757,100.538
10400,Bangkok,กรุงเทพมหานคร,Ratchathewi,ราชเทวี,Thanon Phetchaburi,ถนนเพชรบุรี,13.752,100.559
10400,Bangkok,กรุงเทพมหานคร,Ratchathewi,ราชเทวี,Makkasan,มักกะสัน,13.752,100.528
10230,Bangkok,กรุงเทพมหานคร,Lat Phrao,ลาดพร้าว,Lat Phrao,ลาดพร้าว,13.811,100.612
10230,Bangkok,กรุงเทพมหานคร,Lat Phrao,ลาดพร้าว,Chorakhe Bua,จรเข้บัว,13.84,100.6
10110,Bangkok,กรุงเทพมหานคร,Vadhana,วัฒนา,Khlong Toei Nuea,คลองเตยเหนือ,13.743,100.56
10110,Bangkok,กรุงเทพมหานคร,Vadhana,วัฒนา,Khlong Tan Nuea,คลองตันเหนือ,13.736,100.576
10110,Bangkok,กรุงเทพมหานคร,Vadhana,วัฒนา,Phra Khanong Nuea,พระโขนงเหนือ,13.719,100.596
10160,Bangkok,กรุงเทพมหานคร,Bang Khae,บางแค,Bang Khae,บางแค,13.698,100.409
10160,Bangkok,กรุงเทพมหานคร,Bang Khae,บางแค,Bang Khae Nuea,บางแคเหนือ,13.72,100.4
10160,Bangkok,กรุงเทพมหานคร,Bang Khae,บางแค,Bang Phai,บางไผ่,13.741,100.385
10160,Bangkok,กรุงเทพมหานคร,Bang Khae,บางแค,Lak Song,หลักสอง,13.683,100.396
10210,Bangkok,กรุงเทพมหานคร,Lak Si,หลักสี่,Thung Song Hong,ทุ่งสองห้อง,13.883,100.564
10210,Bangkok,กรุงเทพมหานคร,Lak Si,หลักสี่,Talat Bang Khen,ตลาดบางเขน,13.871,100.58
10220,Bangkok,กรุงเทพมหานคร,Sai Mai,สายไหม,Sai Mai,สายไหม,13.921,100.654
10220,Bangkok,กรุงเทพมหานคร,Sai Mai,สายไหม,O Ngoen,ออเงิน,13.896,100.672
10220,Bangkok,กรุงเทพมหานคร,Sai Mai,สายไหม,Khlong Thanon,คลองถนน,13.898,100.63
10230,Bangkok,กรุงเทพมหานคร,Khan Na Yao,คันนายาว,Khan Na Yao,คันนายาว,13.821,100.677
10230,Bangkok,กรุงเทพมหานคร,Khan Na Yao,คันนายาว,Ram Inthra,รามอินทรา,,
10240,Bangkok,กรุงเทพมหานคร,Saphan Sung,สะพานสูง,Saphan Sung,สะพานสูง,13.761,100.688
10240,Bangkok,กรุงเทพมหานคร,Saphan Sung,สะพานสูง,Rat Phatthana,ราษฎร์พัฒนา,,
10250,Bangkok,กรุงเทพมหานคร,Saphan Sung,สะพานสูง,Thap Chang,ทับช้าง,,
10310,Bangkok,กรุงเทพมหานคร,Wang Thonglang,วังทองหลาง,Wang Thonglang,วังทองหลาง,13.779,100.609
10310,Bangkok,กรุงเทพมหานคร,Wang Thonglang,วังทองหลาง,Saphan Song,สะพานสอง,,
10310,Bangkok,กรุงเทพมหานคร,Wang Thonglang,วังทองหลาง,Khlong Chao Khun Sing,คลองเจ้าคุณสิงห์,,
10310,Bangkok,กรุงเทพมหานคร,Wang Thonglang,วังทองหลาง,Phlapphla,พลับพลา,,
10510,Bangkok,กรุงเทพมหานคร,Khlong Sam Wa,คลองสามวา,Sam Wa Tawan Tok,สามวาตะวันตก,13.889,100.708
10510,Bangkok,กรุงเทพมหานคร,Khlong Sam Wa,คลองสามวา,Sam Wa Tawan Ok,สามวาตะวันออก,13.896,100.76
10510,Bangkok,กรุงเทพมหานคร,Khlong Sam Wa,คลองสามวา,Bang Chan,บางชัน,13.839,100.7
10510,Bangkok,กรุงเทพมหานคร,Khlong Sam Wa,คลองสามวา,Sai Kong Din,ทรายกองดิน,13.854,100.745
10510,Bangkok,กรุงเทพมหานคร,Khlong Sam Wa,คลองสามวา,Sai Kong Din Tai,ทรายกองดินใต้,13.861,100.786
10260,Bangkok,กรุงเทพมหานคร,Bang Na,บางนา,Bang Na Nuea,บางนาเหนือ,,
10260,Bangkok,กรุงเทพมหานคร,Bang Na,บางนา,Bang Na Tai,บางนาใต้,,
10170,Bangkok,กรุงเทพมหานคร,Thawi Watthana,ทวีวัฒนา,Thawi Watthana,ทวีวัฒนา,13.758,100.348
10170,Bangkok,กรุงเทพมหานคร,Thawi Watthana,ทวีวัฒนา,Sala Thammasop,ศาลาธรรมสพน์,13.783,100.39
10140,Bangkok,กรุงเทพมหานคร,Thung Khru,ทุ่งครุ,Bang Mot,บางมด,13.651,100.51
10140,Bangkok,กรุงเทพมหานคร,Thung Khru,ทุ่งครุ,Thung Khru,ทุ่งครุ,13.614,100.497
10150,Bangkok,กรุงเทพมหานคร,Bang Bon,บางบอน,Bang Bon Nuea,บางบอนเหนือ,,
10150,Bangkok,กรุงเทพมหานคร,Bang Bon,บางบอน,Bang Bon Tai,บางบอนใต้,,
10150,Bangkok,กรุงเทพมหานคร,Bang Bon,บางบอน,Khlong Bang Phran,คลองบางพราน,,
10150,Bangkok,กรุงเทพมหานคร,Bang Bon,บางบอน,Khlong Bang Bon,คลองบางบอน,,
10270,Samut Prakan,สมุทรปราการ,Mueang Samut Prakan,เมืองสมุทรปราการ,Pak Nam,ปากน้ำ,13.593,100.597
10270,Samut Prakan,สมุทรปราการ,Mueang Samut Prakan,เมืองสมุทรปราการ,Samrong Nuea,สำโรงเหนือ,13.649,100.617
10270,Samut Prakan,สมุทรปราการ,Mueang Samut Prakan,เมืองสมุทรปราการ,Bang Mueang,บางเมือง,13.601,100.622
10280,Samut Prakan,สมุทรปราการ,Mueang Samut Prakan,เมืองสมุทรปราการ,Thai Ban,ท้ายบ้าน,13.556,100.599
10280,Samut Prakan,สมุทรปราการ,Mueang Samut Prakan,เมืองสมุทรปราการ,Bang Pu Mai,บางปูใหม่,13.526,100.67
10280,Samut Prakan,สมุทรปราการ,Mueang Samut Prakan,เมืองสมุทรปราการ,Phraek Sa,แพรกษา,13.564,100.653
10270,Samut Prakan,สมุทรปราการ,Mueang Samut Prakan,เมืองสมุทรปราการ,Bang Prong,บางโปรง,13.623,100.565
10280,Samut Prakan,สมุทรปราการ,Mueang Samut Prakan,เมืองสมุทรปราการ,Bang Pu,บางปู,13.51,100.751
10270,Samut Prakan,สมุทรปราการ,Mueang Samut Prakan,เมืองสมุทรปราการ,Bang Duan,บางด้วน,13.622,100.581
10270,Samut Prakan,สมุทรปราการ,Mueang Samut Prakan,เมืองสมุทรปราการ,Bang Mueang Mai,บางเมืองใหม่,13.622,100.605
10270,Samut Prakan,สมุทรปราการ,Mueang Samut Prakan,เมืองสมุทรปราการ,Thepharak,เทพารักษ์,13.634,100.61
10280,Samut Prakan,สมุทรปราการ,Mueang Samut Prakan,เมืองสมุทรปราการ,Thai Ban Mai,ท้ายบ้านใหม่,,
10280,Samut Prakan,สมุทรปราการ,Mueang Samut Prakan,เมืองสมุทรปราการ,Phraek Sa Mai,แพรกษาใหม่,13.559,100.691
10560,Samut Prakan,สมุทรปราการ,Bang Bo,บางบ่อ,Bang Bo,บางบ่อ,13.611,100.862
10560,Samut Prakan,สมุทรปราการ,Bang Bo,บางบ่อ,Ban Rakat,บ้านระกาศ,13.639,100.904
10560,Samut Prakan,สมุทรปราการ,Bang Bo,บางบ่อ,Bang Phli Noi,บางพลีน้อย,13.574,100.9
10560,Samut Prakan,สมุทรปราการ,Bang Bo,บางบ่อ,Bang Phriang,บางเพรียง,13.545,100.805
10550,Samut Prakan,สมุทรปราการ,Bang Bo,บางบ่อ,Khlong Dan,คลองด่าน,13.511,100.835
10560,Samut Prakan,สมุทรปราการ,Bang Bo,บางบ่อ,Khlong Suan,คลองสวน,13.659,100.925
10560,Samut Prakan,สมุทรปราการ,Bang Bo,บางบ่อ,Preng,เปร็ง,13.672,100.881
10560,Samut Prakan,สมุทรปราการ,Bang Bo,บางบ่อ,Khlong Niyom Yattra,คลองนิยมยาตรา,13.624,100.935
10540,Samut Prakan,สมุทรปราการ,Bang Phli,บางพลี,Blang Phli Yai,บางพลีใหญ่,13.618,100.694
10540,Samut Prakan,สมุทรปราการ,Bang Phli,บางพลี,Bang Kaeo,บางแก้ว,13.642,100.662
10540,Samut Prakan,สมุทรปราการ,Bang Phli,บางพลี,Bang Pla,บางปลา,13.561,100.739
10540,Samut Prakan,สมุทรปราการ,Bang Phli,บางพลี,Bang Chalong,บางโฉลง,13.623,100.755
10540,Samut Prakan,สมุทรปราการ,Bang Phli,บางพลี,Racha Thewa,ราชาเทวะ,13.681,100.733
10540,Samut Prakan,สมุทรปราการ,Bang Phli,บางพลี,Nong Prue,หนองปรือ,13.678,100.75
10130,Samut Prakan,สมุทรปราการ,Phra Pradaeng,พระประแดง,Talat,ตลาด,13.656,100.533
10130,Samut Prakan,สมุทรปราการ,Phra Pradaeng,พระประแดง,Bang Phueng,บางพึ่ง,13.671,100.52
10130,Samut Prakan,สมุทรปราการ,Phra Pradaeng,พระประแดง,Bang Chak,บางจาก,13.616,100.536
10130,Samut Prakan,สมุทรปราการ,Phra Pradaeng,พระประแดง,Bang Khru,บางครุ,13.631,100.526
10130,Samut Prakan,สมุทรปราการ,Phra Pradaeng,พระประแดง,Bang Ya Phraek,บางหญ้าแพรก,13.645,100.546
10130,Samut Prakan,สมุทรปราการ,Phra Pradaeng,พระประแดง,Bang Hua Suea,บางหัวเสือ,13.625,100.549
10130,Samut Prakan,สมุทรปราการ,Phra Pradaeng,พระประแดง,Samrong Tai,สำโรงใต้,13.641,100.573
10130,Samut Prakan,สมุทรปราการ,Phra Pradaeng,พระประแดง,Bang Yo,บางยอ,13.679,100.558
10130,Samut Prakan,สมุทรปราการ,Phra Pradaeng,พระประแดง,Bang Kachao,บางกะเจ้า,13.697,100.561
10130,Samut Prakan,สมุทรปราการ,Phra Pradaeng,พระประแดง,Bang Nam Phueng,บางน้ำผึ้ง,13.679,100.578
10130,Samut Prakan,สมุทรปราการ,Phra Pradaeng,พระประแดง,Bang Krasop,บางกระสอบ,13.666,100.566
10130,Samut Prakan,สมุทรปราการ,Phra Pradaeng,พระประแดง,Bang Ko Bua,บางกอบัว,13.693,100.577
10130,Samut Prakan,สมุทรปราการ,Phra Pradaeng,พระประแดง,Song Khanong,ทรงคนอง,13.665,100.545
10130,Samut Prakan,สมุทรปราการ,Phra Pradaeng,พระประแดง,Samrong,สำโรง,13.659,100.584
10130,Samut Prakan,สมุทรปราการ,Phra Pradaeng,พระประแดง,Samrong Klang,สำโรงกลาง,13.653,100.564
10290,Samut Prakan,สมุทรปราการ,Phra Samut Chedi,พระสมุทรเจดีย์,Na Kluea,นาเกลือ,13.53,100.494
10290,Samut Prakan,สมุทรปราการ,Phra Samut Chedi,พระสมุทรเจดีย์,Ban Khlong Suan,บ้านคลองสวน,13.571,100.476
10290,Samut Prakan,สมุทรปราการ,Phra Samut Chedi,พระสมุทรเจดีย์,Laem Fa Pha,แหลมฟ้าผ่า,13.539,100.559
10290,Samut Prakan,สมุทรปราการ,Phra Samut Chedi,พระสมุทรเจดีย์,Pak Khlong Bang Pla Kot,ปากคลองบางปลากด,13.606,100.567
10290,Samut Prakan,สมุทรปราการ,Phra Samut Chedi,พระสมุทรเจดีย์,Nai Khlong Bang Pla Kot,ในคลองบางปลากด,13.588,100.541
10570,Samut Prakan,สมุทรปราการ,Bang Sao Thong,บางเสาธง,Bang Sao Thong,บางเสาธง,13.6,100.815
10570,Samut Prakan,สมุทรปราการ,Bang Sao Thong,บางเสาธง,Sisa Chorakhe Noi,ศีรษะจรเข้น้อย,13.689,100.799
10570,Samut Prakan,สมุทรปราการ,Bang Sao Thong,บางเสาธง,Sisa Chorakhe Yai,ศีรษะจรเข้ใหญ่,13.641,100.803
11000,Nonthaburi,นนทบุรี,Mueang Nonthaburi,เมืองนนทบุรี,Suan Yai,สวนใหญ่,13.842,100.494
11000,Nonthaburi,นนทบุรี,Mueang Nonthaburi,เมืองนนทบุรี,Talat Khwan,ตลาดขวัญ,13.85,100.509
11000,Nonthaburi,นนทบุรี,Mueang Nonthaburi,เมืองนนทบุรี,Bang Khen,บางเขน,13.835,100.516
11000,Nonthaburi,นนทบุรี,Mueang Nonthaburi,เมืองนนทบุรี,Bang Kraso,บางกระสอ,13.869,100.491
11000,Nonthaburi,นนทบุรี,Mueang Nonthaburi,เมืองนนทบุรี,Tha Sai,ท่าทราย,13.884,100.501
11000,Nonthaburi,นนทบุรี,Mueang Nonthaburi,เมืองนนทบุรี,Bang Phai,บางไผ่,13.823,100.492
11000,Nonthaburi,นนทบุรี,Mueang Nonthaburi,เมืองนนทบุรี,Bang Si Mueang,บางศรีเมือง,13.841,100.475
11000,Nonthaburi,นนทบุรี,Mueang Nonthaburi,เมืองนนทบุรี,Bang Krang,บางกร่าง,13.835,100.438
11000,Nonthaburi,นนทบุรี,Mueang Nonthaburi,เมืองนนทบุรี,Sai Ma,ไทรม้า,13.87,100.472
11000,Nonthaburi,นนทบุรี,Mueang Nonthaburi,เมืองนนทบุรี,Bang Rak Noi,บางรักน้อย,13.859,100.464
11130,Nonthaburi,นนทบุรี,Bang Kruai,บางกรวย,Wat Chalo,วัดชลอ,13.802,100.476
11130,Nonthaburi,นนทบุรี,Bang Kruai,บางกรวย,Bang Kruai,บางกรวย,13.809,100.499
11130,Nonthaburi,นนทบุรี,Bang Kruai,บางกรวย,Bang Si Thong,บางสีทอง,13.818,100.479
11130,Nonthaburi,นนทบุรี,Bang Kruai,บางกรวย,Bang Khanun,บางขนุน,13.811,100.453
11130,Nonthaburi,นนทบุรี,Bang Kruai,บางกรวย,Bang Khun Kong,บางขุนกอง,13.821,100.444
11130,Nonthaburi,นนทบุรี,Bang Kruai,บางกรวย,Bang Khu Wiang,บางคูเวียง,13.822,100.417
11130,Nonthaburi,นนทบุรี,Bang Kruai,บางกรวย,Maha Sawat,มหาสวัสดิ์,13.806,100.434
11130,Nonthaburi,นนทบุรี,Bang Kruai,บางกรวย,Plai Bang,ปลายบาง,13.814,100.402
11130,Nonthaburi,นนทบุรี,Bang Kruai,บางกรวย,Sala Klang,ศาลากลาง,13.81,100.358
11140,Nonthaburi,นนทบุรี,Bang Yai,บางใหญ่,Bang Muang,บางม่วง,13.838,100.406
11140,Nonthaburi,นนทบุรี,Bang Yai,บางใหญ่,Bang Mae Nang,บางแม่นาง,13.868,100.381
11140,Nonthaburi,นนทบุรี,Bang Yai,บางใหญ่,Bang Len,บางเลน,13.854,100.434
11140,Nonthaburi,นนทบุรี,Bang Yai,บางใหญ่,Sao Thong Hin,เสาธงหิน,13.875,100.404
11140,Nonthaburi,นนทบุรี,Bang Yai,บางใหญ่,Bang Yai,บางใหญ่,13.837,100.375
11140,Nonthaburi,นนทบุรี,Bang Yai,บางใหญ่,Ban Mai,บ้านใหม่,13.861,100.333
11110,Nonthaburi,นนทบุรี,Bang Bua Thong,บางบัวทอง,Sano Loi,โสนลอย,13.914,100.422
11110,Nonthaburi,นนทบุรี,Bang Bua Thong,บางบัวทอง,Bang Bua Thong,บางบัวทอง,13.944,100.39
11110,Nonthaburi,นนทบุรี,Bang Bua Thong,บางบัวทอง,Bang Rak Yai,บางรักใหญ่,13.878,100.438
11110,Nonthaburi,นนทบุรี,Bang Bua Thong,บางบัวทอง,Bang Khu Rat,บางคูรัด,13.907,100.351
11110,Nonthaburi,นนทบุรี,Bang Bua Thong,บางบัวทอง,Lahan,ละหาร,13.964,100.401
11110,Nonthaburi,นนทบุรี,Bang Bua Thong,บางบัวทอง,Lam Pho,ลำโพ,13.97,100.416
11110,Nonthaburi,นนทบุรี,Bang Bua Thong,บางบัวทอง,Phimon Rat,พิมลราช,13.934,100.366
11110,Nonthaburi,นนทบุรี,Bang Bua Thong,บางบัวทอง,Bang Rak Phatthana,บางรักพัฒนา,13.894,100.41
11150,Nonthaburi,นนทบุรี,Sai Noi,ไทรน้อย,Sai Noi,ไทรน้อย,13.976,100.344
11150,Nonthaburi,นนทบุรี,Sai Noi,ไทรน้อย,Rat Niyom,ราษฎร์นิยม,14.088,100.329
11150,Nonthaburi,นนทบุรี,Sai Noi,ไทรน้อย,Nong Phrao Ngai,หนองเพรางาย,13.906,100.322
11150,Nonthaburi,นนทบุรี,Sai Noi,ไทรน้อย,Sai Yai,ไทรใหญ่,14.085,100.292
11150,Nonthaburi,นนทบุรี,Sai Noi,ไทรน้อย,Khun Si,ขุนศรี,14.005,100.287
11150,Nonthaburi,นนทบุรี,Sai Noi,ไทรน้อย,Khlong Khwang,คลองขวาง,14.004,100.306
11150,Nonthaburi,นนทบุรี,Sai Noi,ไทรน้อย,Thawi Watthana,ทวีวัฒนา,13.942,100.312
11120,Nonthaburi,นนทบุรี,Pak Kret,ปากเกร็ด,Pak Kret,ปากเกร็ด,13.912,100.506
11120,Nonthaburi,นนทบุรี,Pak Kret,ปากเกร็ด,Bang Talat,บางตลาด,13.896,100.521
11120,Nonthaburi,นนทบุรี,Pak Kret,ปากเกร็ด,Ban Mai,บ้านใหม่,13.93,100.546
11120,Nonthaburi,นนทบุรี,Pak Kret,ปากเกร็ด,Bang Phut,บางพูด,13.927,100.516
11120,Nonthaburi,นนทบุรี,Pak Kret,ปากเกร็ด,Bang Tanai,บางตะไนย์,13.931,100.492
11120,Nonthaburi,นนทบุรี,Pak Kret,ปากเกร็ด,Khlong Phra Udom,คลองพระอุดม,13.93,100.479
11120,Nonthaburi,นนทบุรี,Pak Kret,ปากเกร็ด,Tha It,ท่าอิฐ,13.894,100.48
11120,Nonthaburi,นนทบุรี,Pak Kret,ปากเกร็ด,Ko Kret,เกาะเกร็ด,13.91,100.472
11120,Nonthaburi,นนทบุรี,Pak Kret,ปากเกร็ด,Om Kret,อ้อมเกร็ด,13.909,100.453
11120,Nonthaburi,นนทบุรี,Pak Kret,ปากเกร็ด,Khlong Khoi,คลองข่อย,13.959,100.45
11120,Nonthaburi,นนทบุรี,Pak Kret,ปากเกร็ด,Bang Phlap,บางพลับ,13.929,100.458
11120,Nonthaburi,นนทบุรี,Pak Kret,ปากเกร็ด,Khlong Kluea,คลองเกลือ,13.902,100.55
12000,Pathum Thani,ปทุมธานี,Mueang Pathum Thani,เมืองปทุมธานี,Bang Prok,บางปรอก,14.012,100.528
12000,Pathum Thani,ปทุมธานี,Mueang Pathum Thani,เมืองปทุมธานี,Ban Mai,บ้านใหม่,13.963,100.553
12000,Pathum Thani,ปทุมธานี,Mueang Pathum Thani,เมืองปทุมธานี,Ban Klang,บ้านกลาง,14.001,100.558
12000,Pathum Thani,ปทุมธานี,Mueang Pathum Thani,เมืองปทุมธานี,Ban Chang,บ้านฉาง,14.029,100.507
12000,Pathum Thani,ปทุมธานี,Mueang Pathum Thani,เมืองปทุมธานี,Ban Krachaeng,บ้านกระแชง,14.031,100.552
12000,Pathum Thani,ปทุมธานี,Mueang Pathum Thani,เมืองปทุมธานี,Bang Khayaeng,บางขะแยง,13.967,100.523
12000,Pathum Thani,ปทุมธานี,Mueang Pathum Thani,เมืองปทุมธานี,Bang Khu Wat,บางคูวัด,13.963,100.495
12000,Pathum Thani,ปทุมธานี,Mueang Pathum Thani,เมืองปทุมธานี,Bang Luang,บางหลวง,14.007,100.509
12000,Pathum Thani,ปทุมธานี,Mueang Pathum Thani,เมืองปทุมธานี,Bang Duea,บางเดื่อ,13.99,100.487
12000,Pathum Thani,ปทุมธานี,Mueang Pathum Thani,เมืองปทุมธานี,Bang Phut,บางพูด,14.035,100.572
12000,Pathum Thani,ปทุมธานี,Mueang Pathum Thani,เมืองปทุมธานี,Bang Phun,บางพูน,13.988,100.594
12000,Pathum Thani,ปทุมธานี,Mueang Pathum Thani,เมืองปทุมธานี,Bang Kadi,บางกะดี,13.983,100.537
12000,Pathum Thani,ปทุมธานี,Mueang Pathum Thani,เมืองปทุมธานี,Suan Phrik Thai,สวนพริกไทย,14.018,100.568
12000,Pathum Thani,ปทุมธานี,Mueang Pathum Thani,เมืองปทุมธานี,Lak Hok,หลักหก,13.963,100.59
12120,Pathum Thani,ปทุมธานี,Khlong Luang,คลองหลวง,Khlong Nueng,คลองหนึ่ง,14.066,100.607
12120,Pathum Thani,ปทุมธานี,Khlong Luang,คลองหลวง,Khlong Song,คลองสอง,14.079,100.642
12120,Pathum Thani,ปทุมธานี,Khlong Luang,คลองหลวง,Khlong Sam,คลองสาม,14.087,100.664
12120,Pathum Thani,ปทุมธานี,Khlong Luang,คลองหลวง,Khlong Si,คลองสี่,14.097,100.687
12120,Pathum Thani,ปทุมธานี,Khlong Luang,คลองหลวง,Khlong Ha,คลองห้า,14.106,100.71
12120,Pathum Thani,ปทุมธานี,Khlong Luang,คลองหลวง,Khlong Hok,คลองหก,14.117,100.733
12120,Pathum Thani,ปทุมธานี,Khlong Luang,คลองหลวง,Khlong Chet,คลองเจ็ด,14.125,100.75
12130,Pathum Thani,ปทุมธานี,Thanyaburi,ธัญบุรี,Prachathipat,ประชาธิปัตย์,13.987,100.632
12130,Pathum Thani,ปทุมธานี,Thanyaburi,ธัญบุรี,Bueng Yitho,บึงยี่โถ,13.999,100.687
12110,Pathum Thani,ปทุมธานี,Thanyaburi,ธัญบุรี,Rangsit,รังสิต,14.018,100.731
12110,Pathum Thani,ปทุมธานี,Thanyaburi,ธัญบุรี,Lam Phak Kut,ลำผักกูด,14.036,100.779
12110,Pathum Thani,ปทุมธานี,Thanyaburi,ธัญบุรี,Bueng Sanan,บึงสนั่น,14.052,100.824
12110,Pathum Thani,ปทุมธานี,Thanyaburi,ธัญบุรี,Bueng Nam Rak,บึงน้ำรักษ์,14.071,100.88
12170,Pathum Thani,ปทุมธานี,Nong Suea,หนองเสือ,Bueng Ba,บึงบา,14.112,100.824
12170,Pathum Thani,ปทุมธานี,Nong Suea,หนองเสือ,Bueng Bon,บึงบอน,14.087,100.778
12170,Pathum Thani,ปทุมธานี,Nong Suea,หนองเสือ,Bueng Ka Sam,บึงกาสาม,14.2,100.824
12170,Pathum Thani,ปทุมธานี,Nong Suea,หนองเสือ,Bueng Cham O,บึงชำอ้อ,14.172,100.778
12170,Pathum Thani,ปทุมธานี,Nong Suea,หนองเสือ,Nong Sam Wang,หนองสามวัง,14.13,100.881
12170,Pathum Thani,ปทุมธานี,Nong Suea,หนองเสือ,Sala Khru,ศาลาครุ,14.244,100.928
12170,Pathum Thani,ปทุมธานี,Nong Suea,หนองเสือ,Noppharat,นพรัตน์,14.223,100.866
12140,Pathum Thani,ปทุมธานี,Lat Lum Kaeo,ลาดหลุมแก้ว,Rahaeng,ระแหง,14.059,100.396
12140,Pathum Thani,ปทุมธานี,Lat Lum Kaeo,ลาดหลุมแก้ว,Lat Lum Kaeo,ลาดหลุมแก้ว,14.006,100.41
12140,Pathum Thani,ปทุมธานี,Lat Lum Kaeo,ลาดหลุมแก้ว,Khu Bang Luang,คูบางหลวง,14.047,100.467
12140,Pathum Thani,ปทุมธานี,Lat Lum Kaeo,ลาดหลุมแก้ว,Khu Khwang,คูขวาง,14.068,100.437
12140,Pathum Thani,ปทุมธานี,Lat Lum Kaeo,ลาดหลุมแก้ว,Khlong Phra Udom,คลองพระอุดม,13.99,100.449
12140,Pathum Thani,ปทุมธานี,Lat Lum Kaeo,ลาดหลุมแก้ว,Bo Ngoen,บ่อเงิน,14.102,100.383
12140,Pathum Thani,ปทุมธานี,Lat Lum Kaeo,ลาดหลุมแก้ว,Na Mai,หน้าไม้,14.034,100.359
12130,Pathum Thani,ปทุมธานี,Lam Luk Ka,ลำลูกกา,Khu Khot,คูคต,13.955,100.641
12150,Pathum Thani,ปทุมธานี,Lam Luk Ka,ลำลูกกา,Lat Sawai,ลาดสวาย,13.958,100.685
12150,Pathum Thani,ปทุมธานี,Lam Luk Ka,ลำลูกกา,Bueng Kham Phroi,บึงคำพร้อย,13.961,100.731
12150,Pathum Thani,ปทุมธานี,Lam Luk Ka,ลำลูกกา,Lum Luk Ka,ลำลูกกา,13.972,100.774
12150,Pathum Thani,ปทุมธานี,Lam Luk Ka,ลำลูกกา,Bueng Thonglang,บึงทองหลาง,13.984,100.82
12150,Pathum Thani,ปทุมธานี,Lam Luk Ka,ลำลูกกา,Lam Sai,ลำไทร,13.973,100.861
12150,Pathum Thani,ปทุมธานี,Lam Luk Ka,ลำลูกกา,Bueng Kho Hai,บึงคอไห,14.029,100.862
12150,Pathum Thani,ปทุมธานี,Lam Luk Ka,ลำลูกกา,Phuet Udom,พืชอุดม,13.975,100.896
12160,Pathum Thani,ปทุมธานี,Sam Khok,สามโคก,Bang Toei,บางเตย,14.062,100.504
12160,Pathum Thani,ปทุมธานี,Sam Khok,สามโคก,Khlong Khwai,คลองควาย,14.097,100.478
12160,Pathum Thani,ปทุมธานี,Sam Khok,สามโคก,Sam Khok,สามโคก,14.052,100.529
12160,Pathum Thani,ปทุมธานี,Sam Khok,สามโคก,Krachaeng,กระแชง,14.043,100.544
12160,Pathum Thani,ปทุมธานี,Sam Khok,สามโคก,Bang Pho Nuea,บางโพธิ์เหนือ,14.042,100.515
12160,Pathum Thani,ปทุมธานี,Sam Khok,สามโคก,Chiang Rak Yai,เชียงรากใหญ่,14.057,100.574
12160,Pathum Thani,ปทุมธานี,Sam Khok,สามโคก,Ban Pathum,บ้านปทุม,14.067,100.546
12160,Pathum Thani,ปทุมธานี,Sam Khok,สามโคก,Ban Ngio,บ้านงิ้ว,14.084,100.539
12160,Pathum Thani,ปทุมธานี,Sam Khok,สามโคก,Chiang Rak Noi,เชียงรากน้อย,14.105,100.567
12160,Pathum Thani,ปทุมธานี,Sam Khok,สามโคก,Bang Krabue,บางกระบือ,14.103,100.538
12160,Pathum Thani,ปทุมธานี,Sam Khok,สามโคก,Thai Ko,ท้ายเกาะ,14.105,100.496
13000,Phra Nakhon Si Ayutthaya,พระนครศรีอยุธยา,Phra Nakhon Si Ayutthaya,พระนครศรีอยุธยา,Pratu Chai,ประตูชัย,14.349,100.551
13000,Phra Nakhon Si Ayutthaya,พระนครศรีอยุธยา,Phra Nakhon Si Ayutthaya,พระนครศรีอยุธยา,Kamang,กะมัง,14.341,100.581
13000,Phra Nakhon Si Ayutthaya,พระนครศรีอยุธยา,Phra Nakhon Si Ayutthaya,พระนครศรีอยุธยา,Ho Rattanachai,หอรัตนไชย,14.354,100.578
13000,Phra Nakhon Si Ayutthaya,พระนครศรีอยุธยา,Phra Nakhon Si Ayutthaya,พระนครศรีอยุธยา,Hua Ro,หัวรอ,14.368,100.578
13000,Phra Nakhon Si Ayutthaya,พระนครศรีอยุธยา,Phra Nakhon Si Ayutthaya,พระนครศรีอยุธยา,Tha Wasukri,ท่าวาสุกรี,14.361,100.552
13000,Phra Nakhon Si Ayutthaya,พระนครศรีอยุธยา,Phra Nakhon Si Ayutthaya,พระนครศรีอยุธยา,Phai Ling,ไผ่ลิง,14.356,100.589
13000,Phra Nakhon Si Ayutthaya,พระนครศรีอยุธยา,Phra Nakhon Si Ayutthaya,พระนครศรีอยุธยา,Pak Kran,ปากกราน,14.31,100.532
13000,Phra Nakhon Si Ayutthaya,พระนครศรีอยุธยา,Phra Nakhon Si Ayutthaya,พระนครศรีอยุธยา,Phukhao Thong,ภูเขาทอง,14.365,100.542
13000,Phra Nakhon Si Ayutthaya,พระนครศรีอยุธยา,Phra Nakhon Si Ayutthaya,พระนครศรีอยุธยา,Samphao Lom,สำเภาล่ม,14.34,100.57
13000,Phra Nakhon Si Ayutthaya,พระนครศรีอยุธยา,Phra Nakhon Si Ayutthaya,พระนครศรีอยุธยา,Suan Phrik,สวนพริก,14.391,100.558
13000,Phra Nakhon Si Ayutthaya,พระนครศรีอยุธยา,Phra Nakhon Si Ayutthaya,พระนครศรีอยุธยา,Khlong Takhian,คลองตะเคียน,14.331,100.554
13000,Phra Nakhon Si Ayutthaya,พระนครศรีอยุธยา,Phra Nakhon Si Ayutthaya,พระนครศรีอยุธยา,Wat Tum,วัดตูม,14.39,100.539
13000,Phra Nakhon Si Ayutthaya,พระนครศรีอยุธยา,Phra Nakhon Si Ayutthaya,พระนครศรีอยุธยา,Hantra,หันตรา,14.371,100.6
13000,Phra Nakhon Si Ayutthaya,พระนครศรีอยุธยา,Phra Nakhon Si Ayutthaya,พระนครศรีอยุธยา,Lumphli,ลุมพลี,14.376,100.548
13000,Phra Nakhon Si Ayutthaya,พระนครศรีอยุธยา,Phra Nakhon Si Ayutthaya,พระนครศรีอยุธยา,Ban Mai,บ้านใหม่,14.39,100.521
13000,Phra Nakhon Si Ayutthaya,พระนครศรีอยุธยา,Phra Nakhon Si Ayutthaya,พระนครศรีอยุธยา,Ban Ko,บ้านเกาะ,14.389,100.582
13000,Phra Nakhon Si Ayutthaya,พระนครศรีอยุธยา,Phra Nakhon Si Ayutthaya,พระนครศรีอยุธยา,Khlong Suan Phlu,คลองสวนพลู,14.334,100.595
13000,Phra Nakhon Si Ayutthaya,พระนครศรีอยุธยา,Phra Nakhon Si Ayutthaya,พระนครศรีอยุธยา,Khlong Sa Bua,คลองสระบัว,14.371,100.563
13000,Phra Nakhon Si Ayutthaya,พระนครศรีอยุธยา,Phra Nakhon Si Ayutthaya,พระนครศรีอยุธยา,Ko Rian,เกาะเรียน,14.318,100.579
13000,Phra Nakhon Si Ayutthaya,พระนครศรีอยุธยา,Phra Nakhon Si Ayutthaya,พระนครศรีอยุธยา,Ban Pom,บ้านป้อม,14.347,100.529
13000,Phra Nakhon Si Ayutthaya,พระนครศรีอยุธยา,Phra Nakhon Si Ayutthaya,พระนครศรีอยุธยา,Ban Run,บ้านรุน,14.312,100.559
13130,Phra Nakhon Si Ayutthaya,พระนครศรีอยุธยา,Tha Ruea,ท่าเรือ,Tha Ruea,ท่าเรือ,14.566,100.719
13130,Phra Nakhon Si Ayutthaya,พระนครศรีอยุธยา,Tha Ruea,ท่าเรือ,Champa,จำปา,14.55,100.741
18270,Phra Nakhon Si Ayutthaya,พระนครศรีอยุธยา,Tha Ruea,ท่าเรือ,Tha Luang,ท่าหลวง,14.548,100.764
13130,Phra Nakhon Si Ayutthaya,พระนครศรีอยุธยา,Tha Ruea,ท่าเรือ,Ban Rom,บ้านร่อม,14.567,100.698
13130,Phra Nakhon Si Ayutthaya,พระนครศรีอยุธยา,Tha Ruea,ท่าเรือ,Sala Loi,ศาลาลอย,14.532,100.7
13130,Phra Nakhon Si Ayutthaya,พระนครศรีอยุธยา,Tha Ruea,ท่าเรือ,Wang Daeng,วังแดง,14.541,100.67
13130,Phra Nakhon Si Ayutthaya,พระนครศรีอยุธยา,Tha Ruea,ท่าเรือ,Pho En,โพธิ์เอน,14.519,100.676
13130,Phra Nakhon Si Ayutthaya,พระนครศรีอยุธยา,Tha Ruea,ท่าเรือ,Pak Tha,ปากท่า,14.504,100.692
13130,Phra Nakhon Si Ayutthaya,พระนครศรีอยุธยา,Tha Ruea,ท่าเรือ,Nong Khanak,หนองขนาก,14.512,100.732
13130,Phra Nakhon Si Ayutthaya,พระนครศรีอยุธยา,Tha Ruea,ท่าเรือ,Tha Chao Sanuk,ท่าเจ้าสนุก,14.543,100.717
13260,Phra Nakhon Si Ayutthaya,พระนครศรีอยุธยา,Nakhon Luang,นครหลวง,Nakhon Luang,นครหลวง,14.469,100.622
13260,Phra Nakhon Si Ayutthaya,พระนครศรีอยุธยา,Nakhon Luang,นครหลวง,Tha Chang,ท่าช้าง,14.511,100.652
13260,Phra Nakhon Si Ayutthaya,พระนครศรีอยุธยา,Nakhon Luang,นครหลวง,Bo Phong,บ่อโพง,14.406,100.603
13260,Phra Nakhon Si Ayutthaya,พระนครศรีอยุธยา,Nakhon Luang,นครหลวง,Ban Chung,บ้านชุ้ง,14.458,100.655
13260,Phra Nakhon Si Ayutthaya,พระนครศรีอยุธยา,Nakhon Luang,นครหลวง,Pak Chan,ปากจั่น,14.44,100.62
13260,Phra Nakhon Si Ayutthaya,พระนครศรีอยุธยา,Nakhon Luang,นครหลวง,Bang Rakam,บางระกำ,14.466,100.589
13260,Phra Nakhon Si Ayutthaya,พระนครศรีอยุธยา,Nakhon Luang,นครหลวง,Bang Phra Khru,บางพระครู,14.483,100.613
13260,Phra Nakhon Si Ayutthaya,พระนครศรีอยุธยา,Nakhon Luang,นครหลวง,Mae La,แม่ลา,14.503,100.619
13260,Phra Nakhon Si Ayutthaya,พระนครศรีอยุธยา,Nakhon Luang,นครหลวง,Nong Pling,หนองปลิง,14.423,100.64
13260,Phra Nakhon Si Ayutthaya,พระนครศรีอยุธยา,Nakhon Luang,นครหลวง,Khlong Sakae,คลองสะแก,14.424,100.604
13260,Phra Nakhon Si Ayutthaya,พระนครศรีอยุธยา,Nakhon Luang,นครหลวง,Sam Thai,สามไถ,14.489,100.675
13260,Phra Nakhon Si Ayutthaya,พระนครศรีอยุธยา,Nakhon Luang,นครหลวง,Phra Non,พระนอน,14.485,100.65
13190,Phra Nakhon Si Ayutthaya,พระนครศรีอยุธยา,Bang Sai,บางไทร,Bang Sai,บางไทร,14.191,100.48
13190,Phra Nakhon Si Ayutthaya,พระนครศรีอยุธยา,Bang Sai,บางไทร,Bang Phli,บางพลี,14.212,100.465
13190,Phra Nakhon Si Ayutthaya,พระนครศรีอยุธยา,Bang Sai,บางไทร,Sanam Chai,สนามชัย,14.213,100.522
13190,Phra Nakhon Si Ayutthaya,พระนครศรีอยุธยา,Bang Sai,บางไทร,Ban Paeng,บ้านแป้ง,14.232,100.507
13190,Phra Nakhon Si Ayutthaya,พระนครศรีอยุธยา,Bang Sai,บางไทร,Na Mai,หน้าไม้,14.315,100.462
13190,Phra Nakhon Si Ayutthaya,พระนครศรีอยุธยา,Bang Sai,บางไทร,Bang Yi Tho,บางยี่โท,14.299,100.445
13190,Phra Nakhon Si Ayutthaya,พระนครศรีอยุธยา,Bang Sai,บางไทร,Khae Ok,แคออก,14.305,100.472
13190,Phra Nakhon Si Ayutthaya,พระนครศรีอยุธยา,Bang Sai,บางไทร,Khae Tok,แคตก,14.287,100.48
13190,Phra Nakhon Si Ayutthaya,พระนครศรีอยุธยา,Bang Sai,บางไทร,Chang Lek,ช่างเหล็ก,14.278,100.453
13190,Phra Nakhon Si Ayutthaya,พระนครศรีอยุธยา,Bang Sai,บางไทร,Krachaeng,กระแชง,14.279,100.505
13190,Phra Nakhon Si Ayutthaya,พระนครศรีอยุธยา,Bang Sai,บางไทร,Ban Klueng,บ้านกลึง,14.309,100.499
13190,Phra Nakhon Si Ayutthaya,พระนครศรีอยุธยา,Bang Sai,บางไทร,Chang Noi,ช้างน้อย,14.252,100.505
13190,Phra Nakhon Si Ayutthaya,พระนครศรีอยุธยา,Bang Sai,บางไทร,Homok,ห่อหมก,14.259,100.474
13190,Phra Nakhon Si Ayutthaya,พระนครศรีอยุธยา,Bang Sai,บางไทร,Phai Phra,ไผ่พระ,14.222,100.432
13190,Phra Nakhon Si Ayutthaya,พระนครศรีอยุธยา,Bang Sai,บางไทร,Kok Kaeo Burapha,กกแก้วบูรพา,14.188,100.435
13190,Phra Nakhon Si Ayutthaya,พระนครศรีอยุธยา,Bang Sai,บางไทร,Mai Tra,ไม้ตรา,14.164,100.473
13190,Phra Nakhon Si Ayutthaya,พระนครศรีอยุธยา,Bang Sai,บางไทร,Ban Ma,บ้านม้า,14.141,100.49
13190,Phra Nakhon Si Ayutthaya,พระนครศรีอยุธยา,Bang Sai,บางไทร,Ban Ko,บ้านเกาะ,14.236,100.46
13290,Phra Nakhon Si Ayutthaya,พระนครศรีอยุธยา,Bang Sai,บางไทร,Ratchakhram,ราชคราม,14.186,100.519
13290,Phra Nakhon Si Ayutthaya,พระนครศรีอยุธยา,Bang Sai,บางไทร,Chang Yai,ช้างใหญ่,14.161,100.522
13290,Phra Nakhon Si Ayutthaya,พระนครศรีอยุธยา,Bang Sai,บางไทร,Pho Taeng,โพแตง,,
13290,Phra Nakhon Si Ayutthaya,พระนครศรีอยุธยา,Bang Sai,บางไทร,Chiang Rak Noi,เชียงรากน้อย,14.134,100.561
13190,Phra Nakhon Si Ayutthaya,พระนครศรีอยุธยา,Bang Sai,บางไทร,Khok Chang,โคกช้าง,14.123,100.492
13250,Phra Nakhon Si Ayutthaya,พระนครศรีอยุธยา,Bang Ban,บางบาล,Bang Ban,บางบาล,14.41,100.464
13250,Phra Nakhon Si Ayutthaya,พระนครศรีอยุธยา,Bang Ban,บางบาล,Wat Yom,วัดยม,14.39,100.497
13250,Phra Nakhon Si Ayutthaya,พระนครศรีอยุธยา,Bang Ban,บางบาล,Sai Noi,ไทรน้อย,14.407,100.486
13250,Phra Nakhon Si Ayutthaya,พระนครศรีอยุธยา,Bang Ban,บางบาล,Saphan Thai,สะพานไทย,14.363,100.486
13250,Phra Nakhon Si Ayutthaya,พระนครศรีอยุธยา,Bang Ban,บางบาล,Maha Phram,มหาพราหมณ์,14.364,100.505
13250,Phra Nakhon Si Ayutthaya,พระนครศรีอยุธยา,Bang Ban,บางบาล,Kop Chao,กบเจา,14.347,100.485
13250,Phra Nakhon Si Ayutthaya,พระนครศรีอยุธยา,Bang Ban,บางบาล,Ban Khlang,บ้านคลัง,14.347,100.457
13250,Phra Nakhon Si Ayutthaya,พระนครศรีอยุธยา,Bang Ban,บางบาล,Phra Khao,พระขาว,14.328,100.482
13250,Phra Nakhon Si Ayutthaya,พระนครศรีอยุธยา,Bang Ban,บางบาล,Nam Tao,น้ำเต้า,14.339,100.438
13250,Phra Nakhon Si Ayutthaya,พระนครศรีอยุธยา,Bang Ban,บางบาล,Thang Chang,ทางช้าง,14.375,100.432
13250,Phra Nakhon Si Ayutthaya,พระนครศรีอยุธยา,Bang Ban,บางบาล,Wat Taku,วัดตะกู,14.388,100.424
13250,Phra Nakhon Si Ayutthaya,พระนครศรีอยุธยา,Bang Ban,บางบาล,Bang Luang,บางหลวง,14.403,100.433
13250,Phra Nakhon Si Ayutthaya,พระนครศรีอยุธยา,Bang Ban,บางบาล,Bang Luang Dot,บางหลวงโดด,14.419,100.43
13250,Phra Nakhon Si Ayutthaya,พระนครศรีอยุธยา,Bang Ban,บางบาล,Bang Hak,บางหัก,14.436,100.439
13250,Phra Nakhon Si Ayutthaya,พระนครศรีอยุธยา,Bang Ban,บางบาล,Bang Chani,บางชะนี,14.429,100.461
13250,Phra Nakhon Si Ayutthaya,พระนครศรีอยุธยา,Bang Ban,บางบาล,Ban Kum,บ้านกุ่ม,14.436,100.492
13160,Phra Nakhon Si Ayutthaya,พระนครศรีอยุธยา,Bang Pa-in,บางปะอิน,Ban Len,บ้านเลน,14.241,100.598
13180,Phra Nakhon Si Ayutthaya,พระนครศรีอยุธยา,Bang Pa-in,บางปะอิน,Chiang Rak Noi,เชียงรากน้อย,14.16,100.594
13160,Phra Nakhon Si Ayutthaya,พระนครศรีอยุธยา,Bang Pa-in,บางปะอิน,Ban Pho,บ้านโพ,14.272,100.588
13160,Phra Nakhon Si Ayutthaya,พระนครศรีอยุธยา,Bang Pa-in,บางปะอิน,Ban Krot,บ้านกรด,14.307,100.604
13160,Phra Nakhon Si Ayutthaya,พระนครศรีอยุธยา,Bang Pa-in,บางปะอิน,Bang Krasan,บางกระสั้น,14.189,100.565
13160,Phra Nakhon Si Ayutthaya,พระนครศรีอยุธยา,Bang Pa-in,บางปะอิน,Khlong Chik,คลองจิก,14.214,100.597
13160,Phra Nakhon Si Ayutthaya,พระนครศรีอยุธยา,Bang Pa-in,บางปะอิน,Ban Wa,บ้านหว้า,14.258,100.616
13160,Phra Nakhon Si Ayutthaya,พระนครศรีอยุธยา,Bang Pa-in,บางปะอิน,Wat Yom,วัดยม,14.26,100.568
13160,Phra Nakhon Si Ayutthaya,พระนครศรีอยุธยา,Bang Pa-in,บางปะอิน,Bang Pradaeng,บางประแดง,14.288,100.544
13160,Phra Nakhon Si Ayutthaya,พระนครศรีอยุธยา,Bang Pa-in,บางปะอิน,Sam Ruean,สามเรือน,14.292,100.647
13160,Phra Nakhon Si Ayutthaya,พระนครศรีอยุธยา,Bang Pa-in,บางปะอิน,Ko Koet,เกาะเกิด,14.206,100.539
13160,Phra Nakhon Si Ayutthaya,พระนครศรีอยุธยา,Bang Pa-in,บางปะอิน,Ban Phlap,บ้านพลับ,14.223,100.552
13160,Phra Nakhon Si Ayutthaya,พระนครศรีอยุธยา,Bang Pa-in,บางปะอิน,Ban Paeng,บ้านแป้ง,14.239,100.557
13160,Phra Nakhon Si Ayutthaya,พระนครศรีอยุธยา,Bang Pa-in,บางปะอิน,Khung Lan,คุ้งลาน,14.295,100.621
13160,Phra Nakhon Si Ayutthaya,พระนครศรีอยุธยา,Bang Pa-in,บางปะอิน,Taling Chan,ตลิ่งชัน,14.25,100.642
13170,Phra Nakhon Si Ayutthaya,พระนครศรีอยุธยา,Bang Pa-in,บางปะอิน,Ban Sang,บ้านสร้าง,14.289,100.668
13160,Phra Nakhon Si Ayutthaya,พระนครศรีอยุธยา,Bang Pa-in,บางปะอิน,Talat Kriap,ตลาดเกรียบ,,
13160,Phra Nakhon Si Ayutthaya,พระนครศรีอยุธยา,Bang Pa-in,บางปะอิน,Khanon Luang,ขนอนหลวง,14.266,100.542
13220,Phra Nakhon Si Ayutthaya,พระนครศรีอยุธยา,Bang Pahan,บางปะหัน,Bang Pahan,บางปะหัน,14.458,100.558
13220,Phra Nakhon Si Ayutthaya,พระนครศรีอยุธยา,Bang Pahan,บางปะหัน,Khayai,ขยาย,14.414,100.564
13220,Phra Nakhon Si Ayutthaya,พระนครศรีอยุธยา,Bang Pahan,บางปะหัน,Bang Duea,บางเดื่อ,14.436,100.576
13220,Phra Nakhon Si Ayutthaya,พระนครศรีอยุธยา,Bang Pahan,บางปะหัน,Sao Thong,เสาธง,14.496,100.549
13220,Phra Nakhon Si Ayutthaya,พระนครศรีอยุธยา,Bang Pahan,บางปะหัน,Thang Klang,ทางกลาง,14.513,100.544
13220,Phra Nakhon Si Ayutthaya,พระนครศรีอยุธยา,Bang Pahan,บางปะหัน,Bang Phloeng,บางเพลิง,14.5,100.577
13220,Phra Nakhon Si Ayutthaya,พระนครศรีอยุธยา,Bang Pahan,บางปะหัน,Han Sang,หันสัง,14.512,100.517
13220,Phra Nakhon Si Ayutthaya,พระนครศรีอยุธยา,Bang Pahan,บางปะหัน,Bang Nang Ra,บางนางร้า,14.474,100.531
13220,Phra Nakhon Si Ayutthaya,พระนครศรีอยุธยา,Bang Pahan,บางปะหัน,Ta Nim,ตานิม,14.491,100.532
13220,Phra Nakhon Si Ayutthaya,พระนครศรีอยุธยา,Bang Pahan,บางปะหัน,Thap Nam,ทับน้ำ,14.464,100.508
13220,Phra Nakhon Si Ayutthaya,พระนครศรีอยุธยา,Bang Pahan,บางปะหัน,Ban Ma,บ้านม้า,14.492,100.51
13220,Phra Nakhon Si Ayutthaya,พระนครศรีอยุธยา,Bang Pahan,บางปะหัน,Khwan Mueang,ขวัญเมือง,14.444,100.536
13220,Phra Nakhon Si Ayutthaya,พระนครศรีอยุธยา,Bang Pahan,บางปะหัน,Ban Li,บ้านลี่,14.449,100.521
13220,Phra Nakhon Si Ayutthaya,พระนครศรีอยุธยา,Bang Pahan,บางปะหัน,Pho Sam Ton,โพธิ์สามต้น,14.421,100.547
13220,Phra Nakhon Si Ayutthaya,พระนครศรีอยุธยา,Bang Pahan,บางปะหัน,Phut Lao,พุทเลา,14.419,100.525
13220,Phra Nakhon Si Ayutthaya,พระนครศรีอยุธยา,Bang Pahan,บางปะหัน,Tan En,ตาลเอน,14.524,100.563
13220,Phra Nakhon Si Ayutthaya,พระนครศรีอยุธยา,Bang Pahan,บางปะหัน,Ban Khlo,บ้านขล้อ,14.532,100.586
13120,Phra Nakhon Si Ayutthaya,พระนครศรีอยุธยา,Phak Hai,ผักไห่,Phak Hai,ผักไห่,14.462,100.379
13120,Phra Nakhon Si Ayutthaya,พระนครศรีอยุธยา,Phak Hai,ผักไห่,Ammarit,อมฤต,14.472,100.361
13120,Phra Nakhon Si Ayutthaya,พระนครศรีอยุธยา,Phak Hai,ผักไห่,Ban Khae,บ้านแค,14.495,100.405
13120,Phra Nakhon Si Ayutthaya,พระนครศรีอยุธยา,Phak Hai,ผักไห่,Lat Nam Khem,ลาดน้ำเค็ม,14.482,100.393
13120,Phra Nakhon Si Ayutthaya,พระนครศรีอยุธยา,Phak Hai,ผักไห่,Ta Lan,ตาลาน,14.446,100.387
13120,Phra Nakhon Si Ayutthaya,พระนครศรีอยุธยา,Phak Hai,ผักไห่,Tha Din Daeng,ท่าดินแดง,14.416,100.388
13280,Phra Nakhon Si Ayutthaya,พระนครศรีอยุธยา,Phak Hai,ผักไห่,Don Lan,ดอนลาน,14.433,100.286
13280,Phra Nakhon Si Ayutthaya,พระนครศรีอยุธยา,Phak Hai,ผักไห่,Na Khu,นาคู,14.468,100.272
13120,Phra Nakhon Si Ayutthaya,พระนครศรีอยุธยา,Phak Hai,ผักไห่,Kudi,กุฎี,14.439,100.407
13280,Phra Nakhon Si Ayutthaya,พระนครศรีอยุธยา,Phak Hai,ผักไห่,Lam Takhian,ลำตะเคียน,14.419,100.318
13120,Phra Nakhon Si Ayutthaya,พระนครศรีอยุธยา,Phak Hai,ผักไห่,Khok Chang,โคกช้าง,14.5,100.388
13280,Phra Nakhon Si Ayutthaya,พระนครศรีอยุธยา,Phak Hai,ผักไห่,Chakkarat,จักราช,14.447,100.34
13280,Phra Nakhon Si Ayutthaya,พระนครศรีอยุธยา,Phak Hai,ผักไห่,Nong Nam Yai,หนองน้ำใหญ่,14.474,100.311
13120,Phra Nakhon Si Ayutthaya,พระนครศรีอยุธยา,Phak Hai,ผักไห่,Lat Chit,ลาดชิด,14.422,100.358
13120,Phra Nakhon Si Ayutthaya,พระนครศรีอยุธยา,Phak Hai,ผักไห่,Na Khok,หน้าโคก,14.49,100.351
13120,Phra Nakhon Si Ayutthaya,พระนครศรีอยุธยา,Phak Hai,ผักไห่,Ban Yai,บ้านใหญ่,14.435,100.384
13140,Phra Nakhon Si Ayutthaya,พระนครศรีอยุธยา,Phachi,ภาชี,Phachi,ภาชี,14.442,100.725
13140,Phra Nakhon Si Ayutthaya,พระนครศรีอยุธยา,Phachi,ภาชี,Khok Muang,โคกม่วง,14.428,100.75
13140,Phra Nakhon Si Ayutthaya,พระนครศรีอยุธยา,Phachi,ภาชี,Rasom,ระโสม,14.39,100.77
13140,Phra Nakhon Si Ayutthaya,พระนครศรีอยุธยา,Phachi,ภาชี,Nong Nam Sai,หนองน้ำใส,14.457,100.751
13140,Phra Nakhon Si Ayutthaya,พระนครศรีอยุธยา,Phachi,ภาชี,Don Ya Nang,ดอนหญ้านาง,14.478,100.739
13140,Phra Nakhon Si Ayutthaya,พระนครศรีอยุธยา,Phachi,ภาชี,Phai Lom,ไผ่ล้อม,14.474,100.693
13140,Phra Nakhon Si Ayutthaya,พระนครศรีอยุธยา,Phachi,ภาชี,Krachio,กระจิว,14.42,100.69
13140,Phra Nakhon Si Ayutthaya,พระนครศรีอยุธยา,Phachi,ภาชี,Phra Kaeo,พระแก้ว,14.44,100.675
13230,Phra Nakhon Si Ayutthaya,พระนครศรีอยุธยา,Lat Bua Luang,ลาดบัวหลวง,Lat Bua Luang,ลาดบัวหลวง,14.193,100.319
13230,Phra Nakhon Si Ayutthaya,พระนครศรีอยุธยา,Lat Bua Luang,ลาดบัวหลวง,Lak Chai,หลักชัย,14.195,100.277
13230,Phra Nakhon Si Ayutthaya,พระนครศรีอยุธยา,Lat Bua Luang,ลาดบัวหลวง,Sam Mueang,สามเมือง,14.153,100.297
13230,Phra Nakhon Si Ayutthaya,พระนครศรีอยุธยา,Lat Bua Luang,ลาดบัวหลวง,Phraya Banlue,พระยาบันลือ,14.161,100.395
13230,Phra Nakhon Si Ayutthaya,พระนครศรีอยุธยา,Lat Bua Luang,ลาดบัวหลวง,Singhanat,สิงหนาท,14.132,100.423
13230,Phra Nakhon Si Ayutthaya,พระนครศรีอยุธยา,Lat Bua Luang,ลาดบัวหลวง,Khu Salot,คู้สลอด,14.196,100.369
13230,Phra Nakhon Si Ayutthaya,พระนครศรีอยุธยา,Lat Bua Luang,ลาดบัวหลวง,Khlong Phraya Banlue,คลองพระยาบันลือ,14.134,100.368
13170,Phra Nakhon Si Ayutthaya,พระนครศรีอยุธยา,Wang Noi,วังน้อย,Lam Ta Sao,ลำตาเสา,14.275,100.708
13170,Phra Nakhon Si Ayutthaya,พระนครศรีอยุธยา,Wang Noi,วังน้อย,Bo ta Lo,บ่อตาโล่,14.241,100.674
13170,Phra Nakhon Si Ayutthaya,พระนครศรีอยุธยา,Wang Noi,วังน้อย,Wang Noi,วังน้อย,14.201,100.699
13170,Phra Nakhon Si Ayutthaya,พระนครศรีอยุธยา,Wang Noi,วังน้อย,Lam Sai,ลำไทร,14.2,100.641
13170,Phra Nakhon Si Ayutthaya,พระนครศรีอยุธยา,Wang Noi,วังน้อย,Sanap Thuep,สนับทึบ,14.298,100.813
13170,Phra Nakhon Si Ayutthaya,พระนครศรีอยุธยา,Wang Noi,วังน้อย,Phayom,พยอม,14.166,100.632
13170,Phra Nakhon Si Ayutthaya,พระนครศรีอยุธยา,Wang Noi,วังน้อย,Han Taphao,หันตะเภา,14.304,100.78
13170,Phra Nakhon Si Ayutthaya,พระนครศรีอยุธยา,Wang Noi,วังน้อย,Wang Chula,วังจุฬา,14.229,100.758
13170,Phra Nakhon Si Ayutthaya,พระนครศรีอยุธยา,Wang Noi,วังน้อย,Khao Ngam,ข้าวงาม,14.249,100.8
13170,Phra Nakhon Si Ayutthaya,พระนครศรีอยุธยา,Wang Noi,วังน้อย,Chamaep,ชะแมบ,14.257,100.748
13110,Phra Nakhon Si Ayutthaya,พระนครศรีอยุธยา,Sena,เสนา,Sena,เสนา,14.328,100.404
13110,Phra Nakhon Si Ayutthaya,พระนครศรีอยุธยา,Sena,เสนา,Ban Phaen,บ้านแพน,14.342,100.417
13110,Phra Nakhon Si Ayutthaya,พระนครศรีอยุธยา,Sena,เสนา,Chao Chet,เจ้าเจ็ด,14.303,100.378
13110,Phra Nakhon Si Ayutthaya,พระนครศรีอยุธยา,Sena,เสนา,Sam Ko,สามกอ,14.306,100.399
13110,Phra Nakhon Si Ayutthaya,พระนครศรีอยุธยา,Sena,เสนา,Bang Nom Kho,บางนมโค,14.292,100.424
13110,Phra Nakhon Si Ayutthaya,พระนครศรีอยุธยา,Sena,เสนา,Hua Wiang,หัวเวียง,14.376,100.402
13110,Phra Nakhon Si Ayutthaya,พระนครศรีอยุธยา,Sena,เสนา,Manwichai,มารวิชัย,14.24,100.371
13110,Phra Nakhon Si Ayutthaya,พระนครศรีอยุธยา,Sena,เสนา,Ban Pho,บ้านโพธิ์,14.351,100.394
13110,Phra Nakhon Si Ayutthaya,พระนครศรีอยุธยา,Sena,เสนา,Rang Chorakhe,รางจรเข้,14.351,100.366
13110,Phra Nakhon Si Ayutthaya,พระนครศรีอยุธยา,Sena,เสนา,Ban Krathum,บ้านกระทุ่ม,14.39,100.383
13110,Phra Nakhon Si Ayutthaya,พระนครศรีอยุธยา,Sena,เสนา,Ban Thaeo,บ้านแถว,14.301,100.348
13110,Phra Nakhon Si Ayutthaya,พระนครศรีอยุธยา,Sena,เสนา,Chai Na,ชายนา,14.258,100.348
13110,Phra Nakhon Si Ayutthaya,พระนครศรีอยุธยา,Sena,เสนา,Sam Tum,สามตุ่ม,14.24,100.406
13110,Phra Nakhon Si Ayutthaya,พระนครศรีอยุธยา,Sena,เสนา,Lat Nga,ลาดงา,14.372,100.358
13110,Phra Nakhon Si Ayutthaya,พระนครศรีอยุธยา,Sena,เสนา,Don Thong,ดอนทอง,14.24,100.306
13110,Phra Nakhon Si Ayutthaya,พระนครศรีอยุธยา,Sena,เสนา,Ban Luang,บ้านหลวง,14.278,100.401
13110,Phra Nakhon Si Ayutthaya,พระนครศรีอยุธยา,Sena,เสนา,Chao Sadet,เจ้าเสด็จ,14.331,100.363
13270,Phra Nakhon Si Ayutthaya,พระนครศรีอยุธยา,Bang Sai,บางซ้าย,Bang Sai,บางซ้าย,14.314,100.286
13270,Phra Nakhon Si Ayutthaya,พระนครศรีอยุธยา,Bang Sai,บางซ้าย,Kaeo Fa,แก้วฟ้า,14.313,100.326
13270,Phra Nakhon Si Ayutthaya,พระนครศรีอยุธยา,Bang Sai,บางซ้าย,Tao Lao,เต่าเล่า,14.34,100.319
13270,Phra Nakhon Si Ayutthaya,พระนครศรีอยุธยา,Bang Sai,บางซ้าย,Plai Klat,ปลายกลัด,14.382,100.315
13270,Phra Nakhon Si Ayutthaya,พระนครศรีอยุธยา,Bang Sai,บางซ้าย,Thep Mongkhon,เทพมงคล,14.236,100.258
13270,Phra Nakhon Si Ayutthaya,พระนครศรีอยุธยา,Bang Sai,บางซ้าย,Wang Phatthana,วังพัฒนา,14.272,100.296
13210,Phra Nakhon Si Ayutthaya,พระนครศรีอยุธยา,Uthai,อุทัย,Khan Ham,คานหาม,14.335,100.641
13210,Phra Nakhon Si Ayutthaya,พระนครศรีอยุธยา,Uthai,อุทัย,Ban Chang,บ้านช้าง,14.322,100.68
13210,Phra Nakhon Si Ayutthaya,พระนครศรีอยุธยา,Uthai,อุทัย,Sam Bandit,สามบัณฑิต,14.349,100.742
13210,Phra Nakhon Si Ayutthaya,พระนครศรีอยุธยา,Uthai,อุทัย,Ban Hip,บ้านหีบ,14.372,100.712
13210,Phra Nakhon Si Ayutthaya,พระนครศรีอยุธยา,Uthai,อุทัย,Nong Mai Sung,หนองไม้ซุง,14.376,100.751
13210,Phra Nakhon Si Ayutthaya,พระนครศรีอยุธยา,Uthai,อุทัย,Uthai,อุทัย,14.373,100.655
13210,Phra Nakhon Si Ayutthaya,พระนครศรีอยุธยา,Uthai,อุทัย,Sena,เสนา,14.392,100.689
13210,Phra Nakhon Si Ayutthaya,พระนครศรีอยุธยา,Uthai,อุทัย,Nong Nam Som,หนองน้ำส้ม,14.32,100.714
13210,Phra Nakhon Si Ayutthaya,พระนครศรีอยุธยา,Uthai,อุทัย,Pho Sao Han,โพสาวหาญ,14.332,100.759
13210,Phra Nakhon Si Ayutthaya,พระนครศรีอยุธยา,Uthai,อุทัย,Thanu,ธนู,14.355,100.622
13210,Phra Nakhon Si Ayutthaya,พระนครศรีอยุธยา,Uthai,อุทัย,Khao Mao,ข้าวเม่า,14.379,100.624
13150,Phra Nakhon Si Ayutthaya,พระนครศรีอยุธยา,Maha Rat,มหาราช,Hua Phai,หัวไผ่,14.532,100.525
13150,Phra Nakhon Si Ayutthaya,พระนครศรีอยุธยา,Maha Rat,มหาราช,Kathum,กะทุ่ม,14.546,100.556
13150,Phra Nakhon Si Ayutthaya,พระนครศรีอยุธยา,Maha Rat,มหาราช,Maha Rat,มหาราช,14.552,100.528
13150,Phra Nakhon Si Ayutthaya,พระนครศรีอยุธยา,Maha Rat,มหาราช,Nam Tao,น้ำเต้า,14.566,100.542
13150,Phra Nakhon Si Ayutthaya,พระนครศรีอยุธยา,Maha Rat,มหาราช,Bang Na,บางนา,14.576,100.581
13150,Phra Nakhon Si Ayutthaya,พระนครศรีอยุธยา,Maha Rat,มหาราช,Rong Chang,โรงช้าง,14.602,100.563
13150,Phra Nakhon Si Ayutthaya,พระนครศรีอยุธยา,Maha Rat,มหาราช,Chao Pluk,เจ้าปลุก,14.584,100.538
13150,Phra Nakhon Si Ayutthaya,พระนครศรีอยุธยา,Maha Rat,มหาราช,Phit Phian,พิตเพียน,14.608,100.544
13150,Phra Nakhon Si Ayutthaya,พระนครศรีอยุธยา,Maha Rat,มหาราช,Ban Na,บ้านนา,14.606,100.51
13150,Phra Nakhon Si Ayutthaya,พระนครศรีอยุธยา,Maha Rat,มหาราช,Ban Khwang,บ้านขวาง,14.576,100.518
13150,Phra Nakhon Si Ayutthaya,พระนครศรีอยุธยา,Maha Rat,มหาราช,Tha To,ท่าตอ,14.556,100.511
13150,Phra Nakhon Si Ayutthaya,พระนครศรีอยุธยา,Maha Rat,มหาราช,Ban Mai,บ้านใหม่,14.531,100.5
13240,Phra Nakhon Si Ayutthaya,พระนครศรีอยุธยา,Ban Phraek,บ้านแพรก,Ban Phraek,บ้านแพรก,14.64,100.585
13240,Phra Nakhon Si Ayutthaya,พระนครศรีอยุธยา,Ban Phraek,บ้านแพรก,Ban Mai,บ้านใหม่,14.655,100.586
13240,Phra Nakhon Si Ayutthaya,พระนครศรีอยุธยา,Ban Phraek,บ้านแพรก,Sam Phaniang,สำพะเนียง,14.638,100.567
13240,Phra Nakhon Si Ayutthaya,พระนครศรีอยุธยา,Ban Phraek,บ้านแพรก,Khlong Noi,คลองน้อย,14.627,100.553
13240,Phra Nakhon Si Ayutthaya,พระนครศรีอยุธยา,Ban Phraek,บ้านแพรก,Song Hong,สองห้อง,14.646,100.519
14000,Ang Thong,อ่างทอง,Mueang Ang Thong,เมืองอ่างทอง,Talat Luang,ตลาดหลวง,14.592,100.453
14000,Ang Thong,อ่างทอง,Mueang Ang Thong,เมืองอ่างทอง,Bang Kaeo,บางแก้ว,14.588,100.459
14000,Ang Thong,อ่างทอง,Mueang Ang Thong,เมืองอ่างทอง,Sala Daeng,ศาลาแดง,14.599,100.445
14000,Ang Thong,อ่างทอง,Mueang Ang Thong,เมืองอ่างทอง,Pa Ngio,ป่างิ้ว,14.612,100.413
14000,Ang Thong,อ่างทอง,Mueang Ang Thong,เมืองอ่างทอง,Ban Hae,บ้านแห,14.565,100.434
14000,Ang Thong,อ่างทอง,Mueang Ang Thong,เมืองอ่างทอง,Talat Kruat,ตลาดกรวด,14.619,100.478
14000,Ang Thong,อ่างทอง,Mueang Ang Thong,เมืองอ่างทอง,Mahat Thai,มหาดไทย,14.568,100.4
14000,Ang Thong,อ่างทอง,Mueang Ang Thong,เมืองอ่างทอง,Ban It,บ้านอิฐ,14.583,100.476
14000,Ang Thong,อ่างทอง,Mueang Ang Thong,เมืองอ่างทอง,Hua Phai,หัวไผ่,14.553,100.474
14000,Ang Thong,อ่างทอง,Mueang Ang Thong,เมืองอ่างทอง,Champa Lo,จำปาหล่อ,14.539,100.433
14000,Ang Thong,อ่างทอง,Mueang Ang Thong,เมืองอ่างทอง,Phosa,โพสะ,14.542,100.457
14000,Ang Thong,อ่างทอง,Mueang Ang Thong,เมืองอ่างทอง,Ban Ri,บ้านรี,14.605,100.485
14000,Ang Thong,อ่างทอง,Mueang Ang Thong,เมืองอ่างทอง,Khlong Wua,คลองวัว,14.578,100.432
14000,Ang Thong,อ่างทอง,Mueang Ang Thong,เมืองอ่างทอง,Yan Sue,ย่านซื่อ,14.619,100.447
14140,Ang Thong,อ่างทอง,Chaiyo,ไชโย,Chorakhe Rong,จรเข้ร้อง,14.658,100.482
14140,Ang Thong,อ่างทอง,Chaiyo,ไชโย,Chaiyaphum,ไชยภูมิ,14.705,100.465
14140,Ang Thong,อ่างทอง,Chaiyo,ไชโย,Chai Rit,ชัยฤทธิ์,14.637,100.472
14140,Ang Thong,อ่างทอง,Chaiyo,ไชโย,Thewarat,เทวราช,14.646,100.449
14140,Ang Thong,อ่างทอง,Chaiyo,ไชโย,Rat Sathit,ราชสถิตย์,14.672,100.456
14140,Ang Thong,อ่างทอง,Chaiyo,ไชโย,Chaiyo,ไชโย,14.707,100.436
14140,Ang Thong,อ่างทอง,Chaiyo,ไชโย,Lak Fa,หลักฟ้า,14.684,100.462
14140,Ang Thong,อ่างทอง,Chaiyo,ไชโย,Chawai,ชะไว,14.687,100.494
14140,Ang Thong,อ่างทอง,Chaiyo,ไชโย,Tri Narong,ตรีณรงค์,14.676,100.498
14130,Ang Thong,อ่างทอง,Pa Mok,ป่าโมก,Bang Pla Kot,บางปลากด,14.509,100.461
14130,Ang Thong,อ่างทอง,Pa Mok,ป่าโมก,Pa Mok,ป่าโมก,14.501,100.437
14130,Ang Thong,อ่างทอง,Pa Mok,ป่าโมก,Sai Thong,สายทอง,14.513,100.484
14130,Ang Thong,อ่างทอง,Pa Mok,ป่าโมก,Rong Chang,โรงช้าง,14.488,100.472
14130,Ang Thong,อ่างทอง,Pa Mok,ป่าโมก,Bang Sadet,บางเสด็จ,14.461,100.473
14130,Ang Thong,อ่างทอง,Pa Mok,ป่าโมก,Norasing,นรสิงห์,14.518,100.431
14130,Ang Thong,อ่างทอง,Pa Mok,ป่าโมก,Ekkarat,เอกราช,14.477,100.426
14130,Ang Thong,อ่างทอง,Pa Mok,ป่าโมก,Phongpheng,โผงเผง,14.455,100.442
14120,Ang Thong,อ่างทอง,Pho Thong,โพธิ์ทอง,Ang Kaeo,อ่างแก้ว,14.666,100.393
14120,Ang Thong,อ่างทอง,Pho Thong,โพธิ์ทอง,Inthapramun,อินทประมูล,14.651,100.425
14120,Ang Thong,อ่างทอง,Pho Thong,โพธิ์ทอง,Bang Phlap,บางพลับ,14.641,100.406
14120,Ang Thong,อ่างทอง,Pho Thong,โพธิ์ทอง,Nong Mae Kai,หนองแม่ไก่,14.708,100.351
14120,Ang Thong,อ่างทอง,Pho Thong,โพธิ์ทอง,Ram Masak,รำมะสัก,14.679,100.242
14120,Ang Thong,อ่างทอง,Pho Thong,โพธิ์ทอง,Bang Rakam,บางระกำ,14.691,100.428
14120,Ang Thong,อ่างทอง,Pho Thong,โพธิ์ทอง,Pho Rang Nok,โพธิ์รังนก,14.614,100.378
14120,Ang Thong,อ่างทอง,Pho Thong,โพธิ์ทอง,Ongkharak,องครักษ์,14.731,100.398
14120,Ang Thong,อ่างทอง,Pho Thong,โพธิ์ทอง,Khok Phutsa,โคกพุทรา,14.689,100.375
14120,Ang Thong,อ่างทอง,Pho Thong,โพธิ์ทอง,Yang Chai,ยางช้าย,14.658,100.297
14120,Ang Thong,อ่างทอง,Pho Thong,โพธิ์ทอง,Bo Rae,บ่อแร่,14.637,100.372
14120,Ang Thong,อ่างทอง,Pho Thong,โพธิ์ทอง,Thang Phra,ทางพระ,14.677,100.36
14120,Ang Thong,อ่างทอง,Pho Thong,โพธิ์ทอง,Sam Ngam,สามง่าม,14.638,100.389
14120,Ang Thong,อ่างทอง,Pho Thong,โพธิ์ทอง,Bang Chao Cha,บางเจ้าฉ่า,14.695,100.398
14120,Ang Thong,อ่างทอง,Pho Thong,โพธิ์ทอง,Kham Yat,คำหยาด,14.676,100.323
14150,Ang Thong,อ่างทอง,Sawaeng Ha,แสวงหา,Sawaeng Ha,แสวงหา,14.763,100.31
14150,Ang Thong,อ่างทอง,Sawaeng Ha,แสวงหา,Si Phran,ศรีพราน,14.725,100.328
14150,Ang Thong,อ่างทอง,Sawaeng Ha,แสวงหา,Ban Phran,บ้านพราน,14.709,100.306
14150,Ang Thong,อ่างทอง,Sawaeng Ha,แสวงหา,Wang Nam Yen,วังน้ำเย็น,14.738,100.221
14150,Ang Thong,อ่างทอง,Sawaeng Ha,แสวงหา,Si Bua Thong,สีบัวทอง,14.769,100.248
14150,Ang Thong,อ่างทอง,Sawaeng Ha,แสวงหา,Huai Phai,ห้วยไผ่,14.789,100.324
14150,Ang Thong,อ่างทอง,Sawaeng Ha,แสวงหา,Chamlong,จำลอง,14.741,100.364
14110,Ang Thong,อ่างทอง,Wiset Chai Chan,วิเศษชัยชาญ,Phai Cham Sin,ไผ่จำศีล,14.59,100.366
14110,Ang Thong,อ่างทอง,Wiset Chai Chan,วิเศษชัยชาญ,San Chao Rong Thong,ศาลเจ้าโรงทอง,14.597,100.34
14110,Ang Thong,อ่างทอง,Wiset Chai Chan,วิเศษชัยชาญ,Phai Dam Phatthana,ไผ่ดำพัฒนา,14.529,100.392
14110,Ang Thong,อ่างทอง,Wiset Chai Chan,วิเศษชัยชาญ,Sao Rong Hai,สาวร้องไห้,14.546,100.223
14110,Ang Thong,อ่างทอง,Wiset Chai Chan,วิเศษชัยชาญ,Tha Chang,ท่าช้าง,14.562,100.333
14110,Ang Thong,อ่างทอง,Wiset Chai Chan,วิเศษชัยชาญ,Yi Lon,ยี่ล้น,14.579,100.301
14110,Ang Thong,อ่างทอง,Wiset Chai Chan,วิเศษชัยชาญ,Bang Chak,บางจัก,14.502,100.33
14110,Ang Thong,อ่างทอง,Wiset Chai Chan,วิเศษชัยชาญ,Huai Khan Laen,ห้วยคันแหลน,14.555,100.294
14110,Ang Thong,อ่างทอง,Wiset Chai Chan,วิเศษชัยชาญ,Khlong Khanak,คลองขนาก,14.53,100.337
14110,Ang Thong,อ่างทอง,Wiset Chai Chan,วิเศษชัยชาญ,Phai Wong,ไผ่วง,14.505,100.251
14110,Ang Thong,อ่างทอง,Wiset Chai Chan,วิเศษชัยชาญ,Si Roi,สี่ร้อย,14.55,100.37
14110,Ang Thong,อ่างทอง,Wiset Chai Chan,วิเศษชัยชาญ,Muang Tia,ม่วงเตี้ย,14.636,100.323
14110,Ang Thong,อ่างทอง,Wiset Chai Chan,วิเศษชัยชาญ,Hua Taphan,หัวตะพาน,14.583,100.387
14110,Ang Thong,อ่างทอง,Wiset Chai Chan,วิเศษชัยชาญ,Lak Kaeo,หลักแก้ว,14.517,100.289
14110,Ang Thong,อ่างทอง,Wiset Chai Chan,วิเศษชัยชาญ,Talat Mai,ตลาดใหม่,14.542,100.315
14160,Ang Thong,อ่างทอง,Samko,สามโก้,Samko,สามโก้,14.606,100.252
14160,Ang Thong,อ่างทอง,Samko,สามโก้,Ratsadon Phatthana,ราษฎรพัฒนา,14.605,100.293
14160,Ang Thong,อ่างทอง,Samko,สามโก้,Op Thom,อบทม,14.581,100.246
14160,Ang Thong,อ่างทอง,Samko,สามโก้,Pho Muang Phan,โพธิ์ม่วงพันธ์,14.561,100.254
14160,Ang Thong,อ่างทอง,Samko,สามโก้,Mongkhon Tham Nimit,มงคลธรรมนิมิต,14.64,100.26
15000,Lop Buri,ลพบุรี,Mueang Lop Buri,เมืองลพบุรี,Thale Chup Son,ทะเลชุบศร,14.804,100.634
15000,Lop Buri,ลพบุรี,Mueang Lop Buri,เมืองลพบุรี,Tha Hin,ท่าหิน,14.802,100.611
15000,Lop Buri,ลพบุรี,Mueang Lop Buri,เมืองลพบุรี,Kok Ko,กกโก,14.767,100.684
13240,Lop Buri,ลพบุรี,Mueang Lop Buri,เมืองลพบุรี,Kong Thanu,โก่งธนู,14.674,100.597
15160,Lop Buri,ลพบุรี,Mueang Lop Buri,เมืองลพบุรี,Khao Phra Ngam,เขาพระงาม,14.901,100.67
15000,Lop Buri,ลพบุรี,Mueang Lop Buri,เมืองลพบุรี,Khao Sam Yot,เขาสามยอด,14.83,100.671
15160,Lop Buri,ลพบุรี,Mueang Lop Buri,เมืองลพบุรี,Khok Kathiam,โคกกะเทียม,14.89,100.58
15000,Lop Buri,ลพบุรี,Mueang Lop Buri,เมืองลพบุรี,Khok Lam Phan,โคกลำพาน,14.74,100.64
15210,Lop Buri,ลพบุรี,Mueang Lop Buri,เมืองลพบุรี,Khok Tum,โคกตูม,14.866,100.817
15000,Lop Buri,ลพบุรี,Mueang Lop Buri,เมืองลพบุรี,Ngio Rai,งิ้วราย,14.704,100.592
15000,Lop Buri,ลพบุรี,Mueang Lop Buri,เมืองลพบุรี,Don Pho,ดอนโพธิ์,14.691,100.627
15000,Lop Buri,ลพบุรี,Mueang Lop Buri,เมืองลพบุรี,Talung,ตะลุง,14.737,100.601
15000,Lop Buri,ลพบุรี,Mueang Lop Buri,เมืองลพบุรี,Tha Khae,ท่าแค,14.865,100.619
15000,Lop Buri,ลพบุรี,Mueang Lop Buri,เมืองลพบุรี,Tha Sala,ท่าศาลา,14.792,100.671
15000,Lop Buri,ลพบุรี,Mueang Lop Buri,เมืองลพบุรี,Nikhom Sang Ton Eng,นิคมสร้างตนเอง,14.824,100.732
15000,Lop Buri,ลพบุรี,Mueang Lop Buri,เมืองลพบุรี,Bang Khan Mak,บางขันหมาก,14.82,100.583
15000,Lop Buri,ลพบุรี,Mueang Lop Buri,เมืองลพบุรี,Ban Khoi,บ้านข่อย,14.683,100.529
15000,Lop Buri,ลพบุรี,Mueang Lop Buri,เมืองลพบุรี,Thai Talat,ท้ายตลาด,14.725,100.563
15000,Lop Buri,ลพบุรี,Mueang Lop Buri,เมืองลพบุรี,Pa Tan,ป่าตาล,14.778,100.64
15000,Lop Buri,ลพบุรี,Mueang Lop Buri,เมืองลพบุรี,Phrommat,พรหมมาสตร์,14.82,100.603
15000,Lop Buri,ลพบุรี,Mueang Lop Buri,เมืองลพบุรี,Pho Kao Ton,โพธิ์เก้าต้น,14.775,100.599
15000,Lop Buri,ลพบุรี,Mueang Lop Buri,เมืองลพบุรี,Pho Tru,โพธิ์ตรุ,14.725,100.532
15000,Lop Buri,ลพบุรี,Mueang Lop Buri,เมืองลพบุรี,Si Khlong,สี่คลอง,14.681,100.563
15000,Lop Buri,ลพบุรี,Mueang Lop Buri,เมืองลพบุรี,Thanon Yai,ถนนใหญ่,14.831,100.629
15140,Lop Buri,ลพบุรี,Phatthana Nikhom,พัฒนานิคม,Phatthana Nikhom,พัฒนานิคม,14.896,100.966
15220,Lop Buri,ลพบุรี,Phatthana Nikhom,พัฒนานิคม,Chong Sarika,ช่องสาริกา,14.802,100.909
15140,Lop Buri,ลพบุรี,Phatthana Nikhom,พัฒนานิคม,Manao Wan,มะนาวหวาน,14.934,101.093
15220,Lop Buri,ลพบุรี,Phatthana Nikhom,พัฒนานิคม,Di Lang,ดีลัง,14.94,100.852
15140,Lop Buri,ลพบุรี,Phatthana Nikhom,พัฒนานิคม,Khok Salung,โคกสลุง,15.01,100.969
15140,Lop Buri,ลพบุรี,Phatthana Nikhom,พัฒนานิคม,Chon Noi,ชอนน้อย,14.795,100.985
15140,Lop Buri,ลพบุรี,Phatthana Nikhom,พัฒนานิคม,Nong Bua,หนองบัว,14.851,101.054
18220,Lop Buri,ลพบุรี,Phatthana Nikhom,พัฒนานิคม,Huai Khun Ram,ห้วยขุนราม,14.951,101.205
15140,Lop Buri,ลพบุรี,Phatthana Nikhom,พัฒนานิคม,Nam Sut,น้ำสุด,14.952,101.146
15120,Lop Buri,ลพบุรี,Khok Samrong,โคกสำโรง,Khok Samrong,โคกสำโรง,15.071,100.713
15120,Lop Buri,ลพบุรี,Khok Samrong,โคกสำโรง,Ko Kaeo,เกาะแก้ว,15.136,100.736
15120,Lop Buri,ลพบุรี,Khok Samrong,โคกสำโรง,Thalung Lek,ถลุงเหล็ก,15.064,100.68
15120,Lop Buri,ลพบุรี,Khok Samrong,โคกสำโรง,Lum Khao,หลุมข้าว,15.024,100.642
15120,Lop Buri,ลพบุรี,Khok Samrong,โคกสำโรง,Huai Pong,ห้วยโป่ง,14.981,100.677
15120,Lop Buri,ลพบุรี,Khok Samrong,โคกสำโรง,Khlong Ket,คลองเกตุ,14.967,100.802
15120,Lop Buri,ลพบุรี,Khok Samrong,โคกสำโรง,Sakae Rap,สะแกราบ,15.12,100.797
15120,Lop Buri,ลพบุรี,Khok Samrong,โคกสำโรง,Phaniat,เพนียด,15.036,100.812
15120,Lop Buri,ลพบุรี,Khok Samrong,โคกสำโรง,Wang Phloeng,วังเพลิง,15.062,100.841
15120,Lop Buri,ลพบุรี,Khok Samrong,โคกสำโรง,Dong Marum,ดงมะรุม,15.127,100.877
15120,Lop Buri,ลพบุรี,Khok Samrong,โคกสำโรง,Wang Khon Khwang,วังขอนขว้าง,15.023,100.697
15120,Lop Buri,ลพบุรี,Khok Samrong,โคกสำโรง,Wang Chan,วังจั่น,15.102,100.673
15120,Lop Buri,ลพบุรี,Khok Samrong,โคกสำโรง,Nong Khaem,หนองแขม,15.143,100.685
15130,Lop Buri,ลพบุรี,Chai Badan,ชัยบาดาล,Lam Narai,ลำนารายณ์,15.214,101.146
15130,Lop Buri,ลพบุรี,Chai Badan,ชัยบาดาล,Chai Narai,ชัยนารายณ์,15.195,101.037
15130,Lop Buri,ลพบุรี,Chai Badan,ชัยบาดาล,Sila Thip,ศิลาทิพย์,15.314,101.087
15130,Lop Buri,ลพบุรี,Chai Badan,ชัยบาดาล,Huai Hin,ห้วยหิน,15.154,101.044
15230,Lop Buri,ลพบุรี,Chai Badan,ชัยบาดาล,Muang Khom,ม่วงค่อม,15.078,101.024
15130,Lop Buri,ลพบุรี,Chai Badan,ชัยบาดาล,Bua Chum,บัวชุม,15.176,101.238
15130,Lop Buri,ลพบุรี,Chai Badan,ชัยบาดาล,Tha Din Dam,ท่าดินดำ,15.15,101.134
15230,Lop Buri,ลพบุรี,Chai Badan,ชัยบาดาล,Makok Wan,มะกอกหวาน,15.059,101.077
15130,Lop Buri,ลพบุรี,Chai Badan,ชัยบาดาล,Sap Takhian,ซับตะเคียน,15.112,101.327
15190,Lop Buri,ลพบุรี,Chai Badan,ชัยบาดาล,Na Som,นาโสม,15.245,101.282
15130,Lop Buri,ลพบุรี,Chai Badan,ชัยบาดาล,Nong Yai To,หนองยายโต๊ะ,15.22,101.264
15130,Lop Buri,ลพบุรี,Chai Badan,ชัยบาดาล,Ko Rang,เกาะรัง,15.318,101.251
15130,Lop Buri,ลพบุรี,Chai Badan,ชัยบาดาล,Tha Manao,ท่ามะนาว,15.187,101.162
15130,Lop Buri,ลพบุรี,Chai Badan,ชัยบาดาล,Nikhom Lam Narai,นิคมลำนารายณ์,15.264,101.15
15230,Lop Buri,ลพบุรี,Chai Badan,ชัยบาดาล,Chai Badan,ชัยบาดาล,15.095,101.058
15130,Lop Buri,ลพบุรี,Chai Badan,ชัยบาดาล,Ban Mai Samakkhi,บ้านใหม่สามัคคี,15.258,101.022
15130,Lop Buri,ลพบุรี,Chai Badan,ชัยบาดาล,Khao Laem,เขาแหลม,15.126,100.964
15150,Lop Buri,ลพบุรี,Tha Wung,ท่าวุ้ง,Tha Wung,ท่าวุ้ง,14.82,100.496
15150,Lop Buri,ลพบุรี,Tha Wung,ท่าวุ้ง,Bang Khu,บางคู้,14.804,100.529
15150,Lop Buri,ลพบุรี,Tha Wung,ท่าวุ้ง,Pho Talat Kaeo,โพตลาดแก้ว,14.795,100.558
15150,Lop Buri,ลพบุรี,Tha Wung,ท่าวุ้ง,Bang Li,บางลี่,14.849,100.526
15150,Lop Buri,ลพบุรี,Tha Wung,ท่าวุ้ง,Bang Nga,บางงา,14.85,100.492
15150,Lop Buri,ลพบุรี,Tha Wung,ท่าวุ้ง,Khok Salut,โคกสลุด,14.881,100.482
15180,Lop Buri,ลพบุรี,Tha Wung,ท่าวุ้ง,Khao Samo Khon,เขาสมอคอน,14.906,100.447
15150,Lop Buri,ลพบุรี,Tha Wung,ท่าวุ้ง,Hua Samrong,หัวสำโรง,14.776,100.494
15150,Lop Buri,ลพบุรี,Tha Wung,ท่าวุ้ง,Lat Sali,ลาดสาลี่,14.723,100.487
15150,Lop Buri,ลพบุรี,Tha Wung,ท่าวุ้ง,Ban Boek,บ้านเบิก,,
15150,Lop Buri,ลพบุรี,Tha Wung,ท่าวุ้ง,Mutchalin,มุจลินท์,14.876,100.509
15110,Lop Buri,ลพบุรี,Ban Mi,บ้านหมี่,Phai Yai,ไผ่ใหญ่,15.089,100.459
15110,Lop Buri,ลพบุรี,Ban Mi,บ้านหมี่,Ban Sai,บ้านทราย,15.034,100.582
15110,Lop Buri,ลพบุรี,Ban Mi,บ้านหมี่,Ban Kluai,บ้านกล้วย,15.016,100.578
15110,Lop Buri,ลพบุรี,Ban Mi,บ้านหมี่,Dong Phlap,ดงพลับ,15.059,100.63
15180,Lop Buri,ลพบุรี,Ban Mi,บ้านหมี่,Ban Chi,บ้านชี,14.947,100.5
15110,Lop Buri,ลพบุรี,Ban Mi,บ้านหมี่,Phu Kha,พุคา,14.953,100.598
15110,Lop Buri,ลพบุรี,Ban Mi,บ้านหมี่,Hin Pak,หินปัก,15.048,100.592
15110,Lop Buri,ลพบุรี,Ban Mi,บ้านหมี่,Bang Phueng,บางพึ่ง,14.994,100.496
15110,Lop Buri,ลพบุรี,Ban Mi,บ้านหมี่,Nong Sai Khao,หนองทรายขาว,14.996,100.597
15110,Lop Buri,ลพบุรี,Ban Mi,บ้านหมี่,Bang Kaphi,บางกะพี้,15.073,100.613
15110,Lop Buri,ลพบุรี,Ban Mi,บ้านหมี่,Nong Tao,หนองเต่า,14.963,100.555
15110,Lop Buri,ลพบุรี,Ban Mi,บ้านหมี่,Phon Thong,โพนทอง,15.04,100.559
15180,Lop Buri,ลพบุรี,Ban Mi,บ้านหมี่,Bang Kham,บางขาม,14.953,100.457
15110,Lop Buri,ลพบุรี,Ban Mi,บ้านหมี่,Don Dueng,ดอนดึง,15.146,100.612
15110,Lop Buri,ลพบุรี,Ban Mi,บ้านหมี่,Chon Muang,ชอนม่วง,15.21,100.61
15110,Lop Buri,ลพบุรี,Ban Mi,บ้านหมี่,Nong Krabian,หนองกระเบียน,15.148,100.534
15110,Lop Buri,ลพบุรี,Ban Mi,บ้านหมี่,Sai Huai Kaeo,สายห้วยแก้ว,15.095,100.509
15110,Lop Buri,ลพบุรี,Ban Mi,บ้านหมี่,Maha Son,มหาสอน,15.021,100.484
15110,Lop Buri,ลพบุรี,Ban Mi,บ้านหมี่,Ban Mi,บ้านหมี่,,
15110,Lop Buri,ลพบุรี,Ban Mi,บ้านหมี่,Chiang Nga,เชียงงา,,
15110,Lop Buri,ลพบุรี,Ban Mi,บ้านหมี่,Nong Mueang,หนองเมือง,15.124,100.569
15110,Lop Buri,ลพบุรี,Ban Mi,บ้านหมี่,Sanam Chaeng,สนามแจง,15.008,100.538
15230,Lop Buri,ลพบุรี,Tha Luang,ท่าหลวง,Tha Luang,ท่าหลวง,15.071,101.117
15230,Lop Buri,ลพบุรี,Tha Luang,ท่าหลวง,Kaeng Phak Kut,แก่งผักกูด,15.014,101.085
15230,Lop Buri,ลพบุรี,Tha Luang,ท่าหลวง,Sap Champa,ซับจำปา,15.026,101.228
15230,Lop Buri,ลพบุรี,Tha Luang,ท่าหลวง,Nong Phak Waen,หนองผักแว่น,15.119,101.216
15230,Lop Buri,ลพบุรี,Tha Luang,ท่าหลวง,Thale Wang Wat,ทะเลวังวัด,15.023,101.184
15230,Lop Buri,ลพบุรี,Tha Luang,ท่าหลวง,Hua Lam,หัวลำ,15.029,101.292
15240,Lop Buri,ลพบุรี,Sa Bot,สระโบสถ์,Sa Bot,สระโบสถ์,15.224,100.846
15240,Lop Buri,ลพบุรี,Sa Bot,สระโบสถ์,Maha Phot,มหาโพธิ,15.289,100.861
15240,Lop Buri,ลพบุรี,Sa Bot,สระโบสถ์,Thung Tha Chang,ทุ่งท่าช้าง,15.169,100.817
15240,Lop Buri,ลพบุรี,Sa Bot,สระโบสถ์,Huai Yai,ห้วยใหญ่,15.169,100.793
15240,Lop Buri,ลพบุรี,Sa Bot,สระโบสถ์,Niyom Chai,นิยมชัย,15.183,100.904
15250,Lop Buri,ลพบุรี,Khok Charoen,โคกเจริญ,Khok Charoen,โคกเจริญ,15.408,100.777
15250,Lop Buri,ลพบุรี,Khok Charoen,โคกเจริญ,Yang Rak,ยางราก,15.366,100.935
15250,Lop Buri,ลพบุรี,Khok Charoen,โคกเจริญ,Nong Makha,หนองมะค่า,15.515,100.839
15250,Lop Buri,ลพบุรี,Khok Charoen,โคกเจริญ,Wang Thong,วังทอง,15.469,100.811
15250,Lop Buri,ลพบุรี,Khok Charoen,โคกเจริญ,Khok Samae San,โคกแสมสาร,15.344,100.85
15190,Lop Buri,ลพบุรี,Lam Sonthi,ลำสนธิ,Lam Sonthi,ลำสนธิ,15.341,101.362
15190,Lop Buri,ลพบุรี,Lam Sonthi,ลำสนธิ,Sap Sombun,ซับสมบูรณ์,15.193,101.354
15190,Lop Buri,ลพบุรี,Lam Sonthi,ลำสนธิ,Nong Ri,หนองรี,15.282,101.319
15190,Lop Buri,ลพบุรี,Lam Sonthi,ลำสนธิ,Kut Ta Phet,กุดตาเพชร,15.523,101.346
15190,Lop Buri,ลพบุรี,Lam Sonthi,ลำสนธิ,Khao Ruak,เขารวก,15.374,101.33
15130,Lop Buri,ลพบุรี,Lam Sonthi,ลำสนธิ,Khao Noi,เขาน้อย,15.112,101.387
15170,Lop Buri,ลพบุรี,Nong Muang,หนองม่วง,Nong Muang,หนองม่วง,15.23,100.664
15170,Lop Buri,ลพบุรี,Nong Muang,หนองม่วง,Bo Thong,บ่อทอง,15.293,100.652
15170,Lop Buri,ลพบุรี,Nong Muang,หนองม่วง,Dong Din Daeng,ดงดินแดง,15.385,100.679
15170,Lop Buri,ลพบุรี,Nong Muang,หนองม่วง,Chon Sombun,ชอนสมบูรณ์,15.288,100.763
15170,Lop Buri,ลพบุรี,Nong Muang,หนองม่วง,Yang Thon,ยางโทน,15.248,100.702
15170,Lop Buri,ลพบุรี,Nong Muang,หนองม่วง,Chon Saradet,ชอนสารเดช,15.195,100.709
16000,Sing Buri,สิงห์บุรี,Mueang Sing Buri,เมืองสิงห์บุรี,Bang Phutsa,บางพุทรา,14.89,100.404
16000,Sing Buri,สิงห์บุรี,Mueang Sing Buri,เมืองสิงห์บุรี,Bang Man,บางมัญ,14.916,100.4
16000,Sing Buri,สิงห์บุรี,Mueang Sing Buri,เมืองสิงห์บุรี,Phok Ruam,โพกรวม,14.944,100.394
16000,Sing Buri,สิงห์บุรี,Mueang Sing Buri,เมืองสิงห์บุรี,Muang Mu,ม่วงหมู่,14.869,100.432
16000,Sing Buri,สิงห์บุรี,Mueang Sing Buri,เมืองสิงห์บุรี,Hua Phai,หัวไผ่,14.965,100.429
16000,Sing Buri,สิงห์บุรี,Mueang Sing Buri,เมืองสิงห์บุรี,Ton Pho,ต้นโพธิ์,14.869,100.398
16000,Sing Buri,สิงห์บุรี,Mueang Sing Buri,เมืองสิงห์บุรี,Chaksi,จักรสีห์,14.836,100.398
16000,Sing Buri,สิงห์บุรี,Mueang Sing Buri,เมืองสิงห์บุรี,Bang Krabue,บางกระบือ,14.907,100.363
16130,Sing Buri,สิงห์บุรี,Bang Rachan,บางระจัน,Sing,สิงห์,14.89,100.338
16130,Sing Buri,สิงห์บุรี,Bang Rachan,บางระจัน,Mai Dat,ไม้ดัด,14.858,100.345
16130,Sing Buri,สิงห์บุรี,Bang Rachan,บางระจัน,Choeng Klat,เชิงกลัด,14.91,100.269
16130,Sing Buri,สิงห์บุรี,Bang Rachan,บางระจัน,Pho Chon Kai,โพชนไก่,14.929,100.292
16130,Sing Buri,สิงห์บุรี,Bang Rachan,บางระจัน,Mae La,แม่ลา,14.941,100.319
16130,Sing Buri,สิงห์บุรี,Bang Rachan,บางระจัน,Ban Cha,บ้านจ่า,14.852,100.284
16130,Sing Buri,สิงห์บุรี,Bang Rachan,บางระจัน,Phak Than,พักทัน,14.924,100.22
16130,Sing Buri,สิงห์บุรี,Bang Rachan,บางระจัน,Sa Chaeng,สระแจง,14.873,100.235
16150,Sing Buri,สิงห์บุรี,Khai Bang Rachan,ค่ายบางระจัน,Pho Thale,โพทะเล,14.829,100.257
16150,Sing Buri,สิงห์บุรี,Khai Bang Rachan,ค่ายบางระจัน,Bang Rachan,บางระจัน,14.799,100.296
16150,Sing Buri,สิงห์บุรี,Khai Bang Rachan,ค่ายบางระจัน,Pho Sangkho,โพสังโฆ,14.833,100.349
16150,Sing Buri,สิงห์บุรี,Khai Bang Rachan,ค่ายบางระจัน,Tha Kham,ท่าข้าม,14.827,100.368
16150,Sing Buri,สิงห์บุรี,Khai Bang Rachan,ค่ายบางระจัน,Kho Sai,คอทราย,14.817,100.281
16150,Sing Buri,สิงห์บุรี,Khai Bang Rachan,ค่ายบางระจัน,Nong Krathum,หนองกระทุ่ม,14.82,100.225
16120,Sing Buri,สิงห์บุรี,Phrom Buri,พรหมบุรี,Phra Ngam,พระงาม,14.748,100.422
16160,Sing Buri,สิงห์บุรี,Phrom Buri,พรหมบุรี,Phrom Buri,พรหมบุรี,14.837,100.451
16120,Sing Buri,สิงห์บุรี,Phrom Buri,พรหมบุรี,Bang Nam Chiao,บางน้ำเชี่ยว,14.783,100.458
16120,Sing Buri,สิงห์บุรี,Phrom Buri,พรหมบุรี,Ban Mo,บ้านหม้อ,14.746,100.461
16120,Sing Buri,สิงห์บุรี,Phrom Buri,พรหมบุรี,Ban Paeng,บ้านแป้ง,14.811,100.458
16120,Sing Buri,สิงห์บุรี,Phrom Buri,พรหมบุรี,Hua Pa,หัวป่า,14.831,100.425
16120,Sing Buri,สิงห์บุรี,Phrom Buri,พรหมบุรี,Rong Chang,โรงช้าง,14.801,100.425
16140,Sing Buri,สิงห์บุรี,Tha Chang,ท่าช้าง,Thon Samo,ถอนสมอ,14.765,100.384
16140,Sing Buri,สิงห์บุรี,Tha Chang,ท่าช้าง,Pho Prachak,โพประจักษ์,14.774,100.36
16140,Sing Buri,สิงห์บุรี,Tha Chang,ท่าช้าง,Wihan Khao,วิหารขาว,14.801,100.409
16140,Sing Buri,สิงห์บุรี,Tha Chang,ท่าช้าง,Phikun Thong,พิกุลทอง,14.772,100.41
16110,Sing Buri,สิงห์บุรี,In Buri,อินทร์บุรี,In Buri,อินทร์บุรี,15.009,100.329
16110,Sing Buri,สิงห์บุรี,In Buri,อินทร์บุรี,Prasuk,ประศุก,15.042,100.291
16110,Sing Buri,สิงห์บุรี,In Buri,อินทร์บุรี,Thap Ya,ทับยา,14.96,100.334
16110,Sing Buri,สิงห์บุรี,In Buri,อินทร์บุรี,Ngio Rai,งิ้วราย,14.988,100.389
16110,Sing Buri,สิงห์บุรี,In Buri,อินทร์บุรี,Chi Nam Rai,ชีน้ำร้าย,15.081,100.331
16110,Sing Buri,สิงห์บุรี,In Buri,อินทร์บุรี,Tha Ngam,ท่างาม,15.041,100.343
16110,Sing Buri,สิงห์บุรี,In Buri,อินทร์บุรี,Nam Tan,น้ำตาล,14.976,100.361
16110,Sing Buri,สิงห์บุรี,In Buri,อินทร์บุรี,Thong En,ทองเอน,15.046,100.385
16110,Sing Buri,สิงห์บุรี,In Buri,อินทร์บุรี,Huai Chan,ห้วยชัน,15.019,100.269
16110,Sing Buri,สิงห์บุรี,In Buri,อินทร์บุรี,Pho Chai,โพธิ์ชัย,15.027,100.439
17000,Chai Nat,ชัยนาท,Mueang Chai Nat,เมืองชัยนาท,Nai Mueang,ในเมือง,15.181,100.127
17000,Chai Nat,ชัยนาท,Mueang Chai Nat,เมืองชัยนาท,Ban Kuai,บ้านกล้วย,15.182,100.153
17000,Chai Nat,ชัยนาท,Mueang Chai Nat,เมืองชัยนาท,Tha Chai,ท่าชัย,15.163,100.113
17000,Chai Nat,ชัยนาท,Mueang Chai Nat,เมืองชัยนาท,Chai Nat,ชัยนาท,15.129,100.151
17000,Chai Nat,ชัยนาท,Mueang Chai Nat,เมืองชัยนาท,Khao Tha Phra,เขาท่าพระ,15.218,100.134
17000,Chai Nat,ชัยนาท,Mueang Chai Nat,เมืองชัยนาท,Hat Tha Sao,หาดท่าเสา,15.2,100.079
17000,Chai Nat,ชัยนาท,Mueang Chai Nat,เมืองชัยนาท,Thammamun,ธรรมามูล,15.264,100.133
17000,Chai Nat,ชัยนาท,Mueang Chai Nat,เมืองชัยนาท,Suea Hok,เสือโฮก,15.238,100.224
17000,Chai Nat,ชัยนาท,Mueang Chai Nat,เมืองชัยนาท,Nang Lue,นางลือ,15.122,100.082
17110,Chai Nat,ชัยนาท,Manorom,มโนรมย์,Khung Samphao,คุ้งสำเภา,15.291,100.091
17110,Chai Nat,ชัยนาท,Manorom,มโนรมย์,Wat Khok,วัดโคก,15.326,100.107
17110,Chai Nat,ชัยนาท,Manorom,มโนรมย์,Sila Dan,ศิลาดาน,15.354,100.122
17110,Chai Nat,ชัยนาท,Manorom,มโนรมย์,Tha Chanuan,ท่าฉนวน,15.379,100.138
17170,Chai Nat,ชัยนาท,Manorom,มโนรมย์,Hang Nam Sakhon,หางน้ำสาคร,15.292,100.146
17170,Chai Nat,ชัยนาท,Manorom,มโนรมย์,Rai Phatthana,ไร่พัฒนา,15.333,100.225
17170,Chai Nat,ชัยนาท,Manorom,มโนรมย์,U Taphao,อู่ตะเภา,15.274,100.219
17120,Chai Nat,ชัยนาท,Wat Sing,วัดสิงห์,Wat Sing,วัดสิงห์,15.263,100.041
17120,Chai Nat,ชัยนาท,Wat Sing,วัดสิงห์,Makham Thao,มะขามเฒ่า,15.227,100.04
17120,Chai Nat,ชัยนาท,Wat Sing,วัดสิงห์,Nong Noi,หนองน้อย,15.177,100.015
17120,Chai Nat,ชัยนาท,Wat Sing,วัดสิงห์,Nong Bua,หนองบัว,15.283,100.013
17120,Chai Nat,ชัยนาท,Wat Sing,วัดสิงห์,Nong Khun,หนองขุ่น,15.235,99.97
17120,Chai Nat,ชัยนาท,Wat Sing,วัดสิงห์,Bo Rae,บ่อแร่,15.283,99.958
17120,Chai Nat,ชัยนาท,Wat Sing,วัดสิงห์,Wang Man,วังหมัน,15.171,99.916
17150,Chai Nat,ชัยนาท,Sapphaya,สรรพยา,Sapphaya,สรรพยา,15.128,100.233
17150,Chai Nat,ชัยนาท,Sapphaya,สรรพยา,Taluk,ตลุก,15.195,100.198
17150,Chai Nat,ชัยนาท,Sapphaya,สรรพยา,Khao Kaeo,เขาแก้ว,15.142,100.316
17150,Chai Nat,ชัยนาท,Sapphaya,สรรพยา,Pho Nang Dam Tok,โพนางดำตก,15.084,100.272
17150,Chai Nat,ชัยนาท,Sapphaya,สรรพยา,Pho Nang Dam Ok,โพนางดำออก,15.12,100.283
17150,Chai Nat,ชัยนาท,Sapphaya,สรรพยา,Bang Luang,บางหลวง,15.143,100.197
17150,Chai Nat,ชัยนาท,Sapphaya,สรรพยา,Hat Asa,หาดอาษา,15.165,100.262
17140,Chai Nat,ชัยนาท,Sankhaburi,สรรคบุรี,Phraek Si Racha,แพรกศรีราชา,15.062,100.107
17140,Chai Nat,ชัยนาท,Sankhaburi,สรรคบุรี,Thiang Thae,เที่ยงแท้,15.089,100.161
17140,Chai Nat,ชัยนาท,Sankhaburi,สรรคบุรี,Huai Krot,ห้วยกรด,15.096,100.203
17140,Chai Nat,ชัยนาท,Sankhaburi,สรรคบุรี,Pho Ngam,โพงาม,14.995,100.249
17140,Chai Nat,ชัยนาท,Sankhaburi,สรรคบุรี,Bang Khut,บางขุด,14.991,100.194
17140,Chai Nat,ชัยนาท,Sankhaburi,สรรคบุรี,Dong Khon,ดงคอน,14.976,100.135
17140,Chai Nat,ชัยนาท,Sankhaburi,สรรคบุรี,Don Kam,ดอนกำ,14.966,100.236
17140,Chai Nat,ชัยนาท,Sankhaburi,สรรคบุรี,Huai Krot Phatthana,ห้วยกรดพัฒนา,15.074,100.228
17130,Chai Nat,ชัยนาท,Hankha,หันคา,Hankha,หันคา,15.016,99.998
17130,Chai Nat,ชัยนาท,Hankha,หันคา,Ban Chian,บ้านเชี่ยน,14.942,99.997
17130,Chai Nat,ชัยนาท,Hankha,หันคา,Phrai Nok Yung,ไพรนกยูง,15.081,99.856
17160,Chai Nat,ชัยนาท,Hankha,หันคา,Nong Saeng,หนองแซง,15.107,99.973
17160,Chai Nat,ชัยนาท,Hankha,หันคา,Huai Ngu,ห้วยงู,15.072,100.067
17130,Chai Nat,ชัยนาท,Hankha,หันคา,Wang Kai Thuean,วังไก่เถื่อน,15.004,100.056
17130,Chai Nat,ชัยนาท,Hankha,หันคา,Den Yai,เด่นใหญ่,15.017,99.93
17160,Chai Nat,ชัยนาท,Hankha,หันคา,Sam Ngam Tha Bot,สามง่ามท่าโบสถ์,15.065,100.026
17120,Chai Nat,ชัยนาท,Nong Mamong,หนองมะโมง,Nong Mamong,หนองมะโมง,15.216,99.772
17120,Chai Nat,ชัยนาท,Nong Mamong,หนองมะโมง,Wang Takhian,วังตะเคียน,15.278,99.802
17120,Chai Nat,ชัยนาท,Nong Mamong,หนองมะโมง,Saphan Hin,สะพานหิน,15.197,99.827
17120,Chai Nat,ชัยนาท,Nong Mamong,หนองมะโมง,Kut Chok,กุดจอก,15.241,99.894
17130,Chai Nat,ชัยนาท,Noen Kham,เนินขาม,Noen Kham,เนินขาม,14.957,99.901
17130,Chai Nat,ชัยนาท,Noen Kham,เนินขาม,Kabok Tia,กะบกเตี้ย,15.036,99.816
17130,Chai Nat,ชัยนาท,Noen Kham,เนินขาม,Suk Duean Ha,สุขเดือนห้า,14.968,99.828
18000,Saraburi,สระบุรี,Mueang Saraburi,เมืองสระบุรี,Pak Phriao,ปากเพรียว,14.527,100.915
18000,Saraburi,สระบุรี,Mueang Saraburi,เมืองสระบุรี,Dao Rueang,ดาวเรือง,14.563,100.901
18000,Saraburi,สระบุรี,Mueang Saraburi,เมืองสระบุรี,Na Chong,นาโฉง,14.529,100.886
18000,Saraburi,สระบุรี,Mueang Saraburi,เมืองสระบุรี,Khok Sawang,โคกสว่าง,14.51,100.886
18000,Saraburi,สระบุรี,Mueang Saraburi,เมืองสระบุรี,Nong No,หนองโน,14.489,100.861
18000,Saraburi,สระบุรี,Mueang Saraburi,เมืองสระบุรี,Nong Yao,หนองยาว,14.472,100.89
18000,Saraburi,สระบุรี,Mueang Saraburi,เมืองสระบุรี,Pak Khao San,ปากข้าวสาร,14.49,100.913
18000,Saraburi,สระบุรี,Mueang Saraburi,เมืองสระบุรี,Nong Pla Lai,หนองปลาไหล,14.456,100.962
18000,Saraburi,สระบุรี,Mueang Saraburi,เมืองสระบุรี,Kut Nok Plao,กุดนกเปล้า,14.502,100.976
18000,Saraburi,สระบุรี,Mueang Saraburi,เมืองสระบุรี,Taling Chan,ตลิ่งชัน,14.544,100.956
18000,Saraburi,สระบุรี,Mueang Saraburi,เมืองสระบุรี,Takut,ตะกุด,14.553,100.933
18110,Saraburi,สระบุรี,Kaeng Khoi,แก่งคอย,Kaeng Khoi,แก่งคอย,14.586,101.002
18260,Saraburi,สระบุรี,Kaeng Khoi,แก่งคอย,Thap Kwang,ทับกวาง,14.605,101.095
18110,Saraburi,สระบุรี,Kaeng Khoi,แก่งคอย,Tan Diao,ตาลเดี่ยว,14.552,101.015
18110,Saraburi,สระบุรี,Kaeng Khoi,แก่งคอย,Huai Haeng,ห้วยแห้ง,14.477,101.004
18110,Saraburi,สระบุรี,Kaeng Khoi,แก่งคอย,Tha Khlo,ท่าคล้อ,14.712,100.993
18110,Saraburi,สระบุรี,Kaeng Khoi,แก่งคอย,Hin Son,หินซ้อน,14.753,101.033
18110,Saraburi,สระบุรี,Kaeng Khoi,แก่งคอย,Ban That,บ้านธาตุ,14.626,100.997
18110,Saraburi,สระบุรี,Kaeng Khoi,แก่งคอย,Ban Pa,บ้านป่า,14.622,101.029
18110,Saraburi,สระบุรี,Kaeng Khoi,แก่งคอย,Tha Tum,ท่าตูม,14.662,100.993
18110,Saraburi,สระบุรี,Kaeng Khoi,แก่งคอย,Cha-om,ชะอม,14.418,101.134
18110,Saraburi,สระบุรี,Kaeng Khoi,แก่งคอย,Song Khon,สองคอน,14.636,100.968
18110,Saraburi,สระบุรี,Kaeng Khoi,แก่งคอย,Tao Pun,เตาปูน,14.603,100.956
18110,Saraburi,สระบุรี,Kaeng Khoi,แก่งคอย,Cham Phak Phaeo,ชำผักแพว,14.529,101.09
18110,Saraburi,สระบุรี,Kaeng Khoi,แก่งคอย,Tha Maprang,ท่ามะปราง,14.483,101.103
18140,Saraburi,สระบุรี,Nong Khae,หนองแค,Nong Khae,หนองแค,14.337,100.869
18140,Saraburi,สระบุรี,Nong Khae,หนองแค,Kum Hak,กุ่มหัก,14.312,100.863
18250,Saraburi,สระบุรี,Nong Khae,หนองแค,Khotchasit,คชสิทธิ์,14.391,100.807
18250,Saraburi,สระบุรี,Nong Khae,หนองแค,Khok Tum,โคกตูม,14.421,100.784
18230,Saraburi,สระบุรี,Nong Khae,หนองแค,Khok Yae,โคกแย้,14.387,100.928
18230,Saraburi,สระบุรี,Nong Khae,หนองแค,Bua Loi,บัวลอย,14.404,100.851
18140,Saraburi,สระบุรี,Nong Khae,หนองแค,Phai Tam,ไผ่ต่ำ,14.326,100.834
18250,Saraburi,สระบุรี,Nong Khae,หนองแค,Phon Thong,โพนทอง,14.425,100.813
18230,Saraburi,สระบุรี,Nong Khae,หนองแค,Huai Khamin,ห้วยขมิ้น,14.381,100.871
18230,Saraburi,สระบุรี,Nong Khae,หนองแค,Huai Sai,ห้วยทราย,14.42,100.933
18140,Saraburi,สระบุรี,Nong Khae,หนองแค,Nong Khai Nam,หนองไข่น้ำ,14.36,100.878
18140,Saraburi,สระบุรี,Nong Khae,หนองแค,Nong Khaem,หนองแขม,14.339,100.797
18230,Saraburi,สระบุรี,Nong Khae,หนองแค,Nong Chik,หนองจิก,14.441,100.866
18140,Saraburi,สระบุรี,Nong Khae,หนองแค,Nong Chorakhe,หนองจรเข้,14.334,100.907
18230,Saraburi,สระบุรี,Nong Khae,หนองแค,Nong Nak,หนองนาก,14.444,100.891
18140,Saraburi,สระบุรี,Nong Khae,หนองแค,Nong Pla Mo,หนองปลาหมอ,14.369,100.845
18140,Saraburi,สระบุรี,Nong Khae,หนองแค,Nong Pling,หนองปลิง,14.37,100.829
18140,Saraburi,สระบุรี,Nong Khae,หนองแค,Nong Rong,หนองโรง,14.279,100.865
18150,Saraburi,สระบุรี,Wihan Daeng,วิหารแดง,Nong Mu,หนองหมู,14.288,100.932
18150,Saraburi,สระบุรี,Wihan Daeng,วิหารแดง,Ban Lam,บ้านลำ,14.391,100.979
18150,Saraburi,สระบุรี,Wihan Daeng,วิหารแดง,Khlong Ruea,คลองเรือ,14.366,101.032
18150,Saraburi,สระบุรี,Wihan Daeng,วิหารแดง,Wihan Daeng,วิหารแดง,14.313,100.99
18150,Saraburi,สระบุรี,Wihan Daeng,วิหารแดง,Nong Suang,หนองสรวง,14.34,100.983
18150,Saraburi,สระบุรี,Wihan Daeng,วิหารแดง,Charoen Tham,เจริญธรรม,14.387,101.006
18170,Saraburi,สระบุรี,Nong Saeng,หนองแซง,Nong Saeng,หนองแซง,14.51,100.759
18170,Saraburi,สระบุรี,Nong Saeng,หนองแซง,Nong Khwai So,หนองควายโซ,14.487,100.795
18170,Saraburi,สระบุรี,Nong Saeng,หนองแซง,Nong Hua Pho,หนองหัวโพ,14.483,100.817
18170,Saraburi,สระบุรี,Nong Saeng,หนองแซง,Nong Sida,หนองสีดา,14.515,100.841
18170,Saraburi,สระบุรี,Nong Saeng,หนองแซง,Nong Kop,หนองกบ,14.456,100.776
18170,Saraburi,สระบุรี,Nong Saeng,หนองแซง,Kai Sao,ไก่เส่า,14.516,100.793
18170,Saraburi,สระบุรี,Nong Saeng,หนองแซง,Khok Sa-at,โคกสะอาด,14.456,100.802
18170,Saraburi,สระบุรี,Nong Saeng,หนองแซง,Muang Wan,ม่วงหวาน,14.476,100.836
18170,Saraburi,สระบุรี,Nong Saeng,หนองแซง,Khao Din,เขาดิน,,
18130,Saraburi,สระบุรี,Ban Mo,บ้านหมอ,Ban Mo,บ้านหมอ,14.616,100.724
18130,Saraburi,สระบุรี,Ban Mo,บ้านหมอ,Bang Khamot,บางโขมด,14.591,100.742
18130,Saraburi,สระบุรี,Ban Mo,บ้านหมอ,Sang Sok,สร่างโศก,14.622,100.754
18130,Saraburi,สระบุรี,Ban Mo,บ้านหมอ,Talat Noi,ตลาดน้อย,14.643,100.716
18130,Saraburi,สระบุรี,Ban Mo,บ้านหมอ,Horathep,หรเทพ,14.628,100.67
18130,Saraburi,สระบุรี,Ban Mo,บ้านหมอ,Khok Yai,โคกใหญ่,14.606,100.677
18130,Saraburi,สระบุรี,Ban Mo,บ้านหมอ,Phai Khwang,ไผ่ขวาง,14.579,100.648
18270,Saraburi,สระบุรี,Ban Mo,บ้านหมอ,Ban Khrua,บ้านครัว,14.584,100.767
18130,Saraburi,สระบุรี,Ban Mo,บ้านหมอ,Nong Bua,หนองบัว,14.618,100.774
18210,Saraburi,สระบุรี,Don Phut,ดอนพุด,Don Phut,ดอนพุด,14.596,100.621
18210,Saraburi,สระบุรี,Don Phut,ดอนพุด,Phai Lio,ไผ่หลิ่ว,14.625,100.632
18210,Saraburi,สระบุรี,Don Phut,ดอนพุด,Ban Luang,บ้านหลวง,14.571,100.62
18210,Saraburi,สระบุรี,Don Phut,ดอนพุด,Dong Ta-ngao,ดงตะงาว,14.624,100.599
18190,Saraburi,สระบุรี,Nong Don,หนองโดน,Nong Don,หนองโดน,14.688,100.693
18190,Saraburi,สระบุรี,Nong Don,หนองโดน,Ban Klap,บ้านกลับ,14.73,100.684
18190,Saraburi,สระบุรี,Nong Don,หนองโดน,Don Thong,ดอนทอง,14.664,100.654
18190,Saraburi,สระบุรี,Nong Don,หนองโดน,Ban Prong,บ้านโปร่ง,14.716,100.734
18120,Saraburi,สระบุรี,Phra Phutthabat,พระพุทธบาท,Phra Phutthabat,พระพุทธบาท,14.732,100.782
18120,Saraburi,สระบุรี,Phra Phutthabat,พระพุทธบาท,Khun Khlon,ขุนโขลน,14.713,100.831
18120,Saraburi,สระบุรี,Phra Phutthabat,พระพุทธบาท,Than Kasem,ธารเกษม,14.763,100.812
18120,Saraburi,สระบุรี,Phra Phutthabat,พระพุทธบาท,Na Yao,นายาว,14.768,100.763
18120,Saraburi,สระบุรี,Phra Phutthabat,พระพุทธบาท,Phu Kham Chan,พุคำจาน,14.744,100.847
18120,Saraburi,สระบุรี,Phra Phutthabat,พระพุทธบาท,Khao Wong,เขาวง,14.679,100.83
18120,Saraburi,สระบุรี,Phra Phutthabat,พระพุทธบาท,Huai Pa Wai,ห้วยป่าหวาย,14.638,100.83
18120,Saraburi,สระบุรี,Phra Phutthabat,พระพุทธบาท,Phu Krang,พุกร่าง,14.682,100.784
18120,Saraburi,สระบุรี,Phra Phutthabat,พระพุทธบาท,Nong Kae,หนองแก,,
18160,Saraburi,สระบุรี,Sao Hai,เสาไห้,Sao Hai,เสาไห้,14.538,100.85
18160,Saraburi,สระบุรี,Sao Hai,เสาไห้,Ban Yang,บ้านยาง,14.582,100.816
18160,Saraburi,สระบุรี,Sao Hai,เสาไห้,Hua Pluak,หัวปลวก,14.615,100.844
18160,Saraburi,สระบุรี,Sao Hai,เสาไห้,Ngio Ngam,งิ้วงาม,14.59,100.851
18160,Saraburi,สระบุรี,Sao Hai,เสาไห้,Sala Ri Thai,ศาลารีไทย,14.565,100.848
18160,Saraburi,สระบุรี,Sao Hai,เสาไห้,Ton Tan,ต้นตาล,14.574,100.885
18160,Saraburi,สระบุรี,Sao Hai,เสาไห้,Tha Chang,ท่าช้าง,14.586,100.863
18160,Saraburi,สระบุรี,Sao Hai,เสาไห้,Phraya Thot,พระยาทด,14.572,100.871
18160,Saraburi,สระบุรี,Sao Hai,เสาไห้,Muang Ngam,ม่วงงาม,14.544,100.807
18160,Saraburi,สระบุรี,Sao Hai,เสาไห้,Roeng Rang,เริงราง,14.558,100.786
18160,Saraburi,สระบุรี,Sao Hai,เสาไห้,Mueang Kao,เมืองเก่า,14.54,100.825
18160,Saraburi,สระบุรี,Sao Hai,เสาไห้,Suan Dok Mai,สวนดอกไม้,14.54,100.868
18180,Saraburi,สระบุรี,Muak Lek,มวกเหล็ก,Muak Lek,มวกเหล็ก,14.705,101.151
18180,Saraburi,สระบุรี,Muak Lek,มวกเหล็ก,Mittraphap,มิตรภาพ,14.474,101.213
18180,Saraburi,สระบุรี,Muak Lek,มวกเหล็ก,Nong Yang Suea,หนองย่างเสือ,14.789,101.27
30130,Saraburi,สระบุรี,Muak Lek,มวกเหล็ก,Lam Somphung,ลำสมพุง,15.007,101.381
30130,Saraburi,สระบุรี,Muak Lek,มวกเหล็ก,Lam Phaya Klang,ลำพญากลาง,14.871,101.367
18220,Saraburi,สระบุรี,Muak Lek,มวกเหล็ก,Sap Sanun,ซับสนุ่น,14.932,101.309
18220,Saraburi,สระบุรี,Wang Muang,วังม่วง,Salaeng Phan,แสลงพัน,14.745,101.116
18220,Saraburi,สระบุรี,Wang Muang,วังม่วง,Kham Phran,คำพราน,14.818,101.132
18220,Saraburi,สระบุรี,Wang Muang,วังม่วง,Wang Muang,วังม่วง,14.861,101.151
18000,Saraburi,สระบุรี,Chaloem Phra Kiat,เฉลิมพระเกียรติ,Khao Din Phatthana,เขาดินพัฒนา,14.612,100.906
18000,Saraburi,สระบุรี,Chaloem Phra Kiat,เฉลิมพระเกียรติ,Ban Kaeng,บ้านแก้ง,14.582,100.936
18000,Saraburi,สระบุรี,Chaloem Phra Kiat,เฉลิมพระเกียรติ,Phueng Ruang,ผึ้งรวง,14.607,100.931
18240,Saraburi,สระบุรี,Chaloem Phra Kiat,เฉลิมพระเกียรติ,Phu Khae,พุแค,14.656,100.905
18000,Saraburi,สระบุรี,Chaloem Phra Kiat,เฉลิมพระเกียรติ,Huai Bong,ห้วยบง,14.626,100.877
18240,Saraburi,สระบุรี,Chaloem Phra Kiat,เฉลิมพระเกียรติ,Na Phra Lan,หน้าพระลาน,14.713,100.904
20000,Chon Buri,ชลบุรี,Mueang Chon Buri,เมืองชลบุรี,Bang Pla Soi,บางปลาสร้อย,13.364,100.987
20000,Chon Buri,ชลบุรี,Mueang Chon Buri,เมืองชลบุรี,Makham Yong,มะขามหย่ง,13.372,100.985
20000,Chon Buri,ชลบุรี,Mueang Chon Buri,เมืองชลบุรี,Ban Khot,บ้านโขด,13.376,100.99
20130,Chon Buri,ชลบุรี,Mueang Chon Buri,เมืองชลบุรี,Saen Suk,แสนสุข,13.274,100.928
20000,Chon Buri,ชลบุรี,Mueang Chon Buri,เมืองชลบุรี,Ban Suan,บ้านสวน,13.347,100.977
20000,Chon Buri,ชลบุรี,Mueang Chon Buri,เมืองชลบุรี,Nong Ri,หนองรี,13.307,101.057
20000,Chon Buri,ชลบุรี,Mueang Chon Buri,เมืองชลบุรี,Na Pa,นาป่า,13.385,101.03
20000,Chon Buri,ชลบุรี,Mueang Chon Buri,เมืองชลบุรี,Nong Khang Khok,หนองข้างคอก,13.305,101.006
20000,Chon Buri,ชลบุรี,Mueang Chon Buri,เมืองชลบุรี,Don Hua Lo,ดอนหัวฬ่อ,13.421,101.044
20000,Chon Buri,ชลบุรี,Mueang Chon Buri,เมืองชลบุรี,Nong Mai Daeng,หนองไม้แดง,13.406,101.003
20000,Chon Buri,ชลบุรี,Mueang Chon Buri,เมืองชลบุรี,Bang Sai,บางทราย,13.393,100.996
20000,Chon Buri,ชลบุรี,Mueang Chon Buri,เมืองชลบุรี,Khlong Tamru,คลองตำหรุ,13.441,100.982
20130,Chon Buri,ชลบุรี,Mueang Chon Buri,เมืองชลบุรี,Mueang,เหมือง,13.263,100.959
20130,Chon Buri,ชลบุรี,Mueang Chon Buri,เมืองชลบุรี,Ban Puek,บ้านปึก,13.302,100.928
20000,Chon Buri,ชลบุรี,Mueang Chon Buri,เมืองชลบุรี,Huai Kapi,ห้วยกะปิ,13.304,100.968
20000,Chon Buri,ชลบุรี,Mueang Chon Buri,เมืองชลบุรี,Samet,เสม็ด,13.326,100.951
20000,Chon Buri,ชลบุรี,Mueang Chon Buri,เมืองชลบุรี,Ang Sila,อ่างศิลา,13.325,100.929
20000,Chon Buri,ชลบุรี,Mueang Chon Buri,เมืองชลบุรี,Samnak Bok,สำนักบก,13.368,101.061
20170,Chon Buri,ชลบุรี,Ban Bueng,บ้านบึง,Ban Bueng,บ้านบึง,13.297,101.107
20220,Chon Buri,ชลบุรี,Ban Bueng,บ้านบึง,Khlong Kio,คลองกิ่ว,13.225,101.107
20170,Chon Buri,ชลบุรี,Ban Bueng,บ้านบึง,Map Phai,มาบไผ่,13.359,101.093
20170,Chon Buri,ชลบุรี,Ban Bueng,บ้านบึง,Nong Samsak,หนองซ้ำซาก,13.33,101.072
20170,Chon Buri,ชลบุรี,Ban Bueng,บ้านบึง,Nong Bon Daeng,หนองบอนแดง,13.353,101.159
20170,Chon Buri,ชลบุรี,Ban Bueng,บ้านบึง,Nong Chak,หนองชาก,13.298,101.172
20220,Chon Buri,ชลบุรี,Ban Bueng,บ้านบึง,Nong Irun,หนองอิรุณ,13.28,101.247
20220,Chon Buri,ชลบุรี,Ban Bueng,บ้านบึง,Nong Phai Kaeo,หนองไผ่แก้ว,13.213,101.246
20190,Chon Buri,ชลบุรี,Nong Yai,หนองใหญ่,Nong Yai,หนองใหญ่,13.153,101.375
20190,Chon Buri,ชลบุรี,Nong Yai,หนองใหญ่,Khlong Phlu,คลองพลู,13.115,101.476
20190,Chon Buri,ชลบุรี,Nong Yai,หนองใหญ่,Nong Suea Chang,หนองเสือช้าง,13.117,101.283
20190,Chon Buri,ชลบุรี,Nong Yai,หนองใหญ่,Hang Sung,ห้างสูง,13.243,101.347
20190,Chon Buri,ชลบุรี,Nong Yai,หนองใหญ่,Khao Sok,เขาซก,13.07,101.42
20150,Chon Buri,ชลบุรี,Bang Lamung,บางละมุง,Bang Lamung,บางละมุง,13.052,100.922
20150,Chon Buri,ชลบุรี,Bang Lamung,บางละมุง,Nong Prue,หนองปรือ,12.92,100.935
20150,Chon Buri,ชลบุรี,Bang Lamung,บางละมุง,Nong Pla Lai,หนองปลาไหล,12.982,100.945
20150,Chon Buri,ชลบุรี,Bang Lamung,บางละมุง,Pong,โป่ง,12.933,100.987
20150,Chon Buri,ชลบุรี,Bang Lamung,บางละมุง,Khao Mai Kaeo,เขาไม้แก้ว,12.951,101.057
20150,Chon Buri,ชลบุรี,Bang Lamung,บางละมุง,Huai Yai,ห้วยใหญ่,12.835,100.985
20150,Chon Buri,ชลบุรี,Bang Lamung,บางละมุง,Takhian Tia,ตะเคียนเตี้ย,13.002,101.015
20150,Chon Buri,ชลบุรี,Bang Lamung,บางละมุง,Na Kluea,นาเกลือ,12.928,100.805
20160,Chon Buri,ชลบุรี,Phan Thong,พานทอง,Phan Thong,พานทอง,13.461,101.084
20160,Chon Buri,ชลบุรี,Phan Thong,พานทอง,Nong Tamlueng,หนองตำลึง,13.408,101.078
20160,Chon Buri,ชลบุรี,Phan Thong,พานทอง,Map Pong,มาบโป่ง,13.431,101.121
20160,Chon Buri,ชลบุรี,Phan Thong,พานทอง,Nong Kakha,หนองกะขะ,13.431,101.095
20160,Chon Buri,ชลบุรี,Phan Thong,พานทอง,Nong Hong,หนองหงษ์,13.389,101.113
20160,Chon Buri,ชลบุรี,Phan Thong,พานทอง,Khok Khi Non,โคกขี้หนอน,13.552,101.114
20160,Chon Buri,ชลบุรี,Phan Thong,พานทอง,Ban Kao,บ้านเก่า,13.454,101.059
20160,Chon Buri,ชลบุรี,Phan Thong,พานทอง,Na Pradu,หน้าประดู่,13.497,101.099
20160,Chon Buri,ชลบุรี,Phan Thong,พานทอง,Bang Nang,บางนาง,13.487,101.067
20160,Chon Buri,ชลบุรี,Phan Thong,พานทอง,Ko Loi,เกาะลอย,13.519,101.074
20160,Chon Buri,ชลบุรี,Phan Thong,พานทอง,Bang Hak,บางหัก,13.544,101.075
20140,Chon Buri,ชลบุรี,Phanat Nikhom,พนัสนิคม,Phanat Nikhom,พนัสนิคม,13.45,101.18
20140,Chon Buri,ชลบุรี,Phanat Nikhom,พนัสนิคม,Na Phra That,หน้าพระธาตุ,13.468,101.147
20140,Chon Buri,ชลบุรี,Phanat Nikhom,พนัสนิคม,Wat Luang,วัดหลวง,13.518,101.161
20140,Chon Buri,ชลบุรี,Phanat Nikhom,พนัสนิคม,Ban Soet,บ้านเซิด,13.444,101.144
20140,Chon Buri,ชลบุรี,Phanat Nikhom,พนัสนิคม,Na Roek,นาเริก,13.405,101.248
20140,Chon Buri,ชลบุรี,Phanat Nikhom,พนัสนิคม,Mon Nang,หมอนนาง,13.346,101.257
20140,Chon Buri,ชลบุรี,Phanat Nikhom,พนัสนิคม,Sa Si Liam,สระสี่เหลี่ยม,13.554,101.239
20140,Chon Buri,ชลบุรี,Phanat Nikhom,พนัสนิคม,Wat Bot,วัดโบสถ์,13.498,101.139
20140,Chon Buri,ชลบุรี,Phanat Nikhom,พนัสนิคม,Kut Ngong,กุฎโง้ง,13.444,101.165
20140,Chon Buri,ชลบุรี,Phanat Nikhom,พนัสนิคม,Hua Thanon,หัวถนน,13.531,101.265
20140,Chon Buri,ชลบุรี,Phanat Nikhom,พนัสนิคม,Tha Kham,ท่าข้าม,13.559,101.177
20140,Chon Buri,ชลบุรี,Phanat Nikhom,พนัสนิคม,Nong Prue,หนองปรือ,13.511,101.254
20140,Chon Buri,ชลบุรี,Phanat Nikhom,พนัสนิคม,Nong Khayat,หนองขยาด,13.402,101.151
20140,Chon Buri,ชลบุรี,Phanat Nikhom,พนัสนิคม,Thung Khwang,ทุ่งขวาง,13.4,101.188
20140,Chon Buri,ชลบุรี,Phanat Nikhom,พนัสนิคม,Nong Hiang,หนองเหียง,13.464,101.33
20140,Chon Buri,ชลบุรี,Phanat Nikhom,พนัสนิคม,Na Wang Hin,นาวังหิน,13.442,101.251
20140,Chon Buri,ชลบุรี,Phanat Nikhom,พนัสนิคม,Ban Chang,บ้านช้าง,13.435,101.213
20140,Chon Buri,ชลบุรี,Phanat Nikhom,พนัสนิคม,Khok Phlo,โคกเพลาะ,13.52,101.121
20140,Chon Buri,ชลบุรี,Phanat Nikhom,พนัสนิคม,Rai Lak Thong,ไร่หลักทอง,13.484,101.184
20140,Chon Buri,ชลบุรี,Phanat Nikhom,พนัสนิคม,Na Matum,นามะตูม,,
20110,Chon Buri,ชลบุรี,Si Racha,ศรีราชา,Si Racha,ศรีราชา,13.174,100.92
20110,Chon Buri,ชลบุรี,Si Racha,ศรีราชา,Surasak,สุรศักดิ์,13.16,100.983
20230,Chon Buri,ชลบุรี,Si Racha,ศรีราชา,Thung Sukhla,ทุ่งสุขลา,13.097,100.912
20230,Chon Buri,ชลบุรี,Si Racha,ศรีราชา,Bueng,บึง,13.073,101.006
20110,Chon Buri,ชลบุรี,Si Racha,ศรีราชา,Nong Kham,หนองขาม,13.134,101.038
20110,Chon Buri,ชลบุรี,Si Racha,ศรีราชา,Khao Khansong,เขาคันทรง,13.129,101.123
20110,Chon Buri,ชลบุรี,Si Racha,ศรีราชา,Bang Phra,บางพระ,13.223,101.007
20230,Chon Buri,ชลบุรี,Si Racha,ศรีราชา,Bo Win,บ่อวิน,13.052,101.093
20120,Chon Buri,ชลบุรี,Ko Sichang,เกาะสีชัง,Tha Thewawong,ท่าเทววงษ์,13.151,100.809
20180,Chon Buri,ชลบุรี,Sattahip,สัตหีบ,Sattahip,สัตหีบ,12.611,100.889
20250,Chon Buri,ชลบุรี,Sattahip,สัตหีบ,Na Chom Thian,นาจอมเทียน,12.775,100.94
20180,Chon Buri,ชลบุรี,Sattahip,สัตหีบ,Phlu Ta Luang,พลูตาหลวง,12.701,100.967
20250,Chon Buri,ชลบุรี,Sattahip,สัตหีบ,Bang Sare,บางเสร่,12.761,100.844
20180,Chon Buri,ชลบุรี,Sattahip,สัตหีบ,Samaesan,แสมสาร,12.616,100.918
20270,Chon Buri,ชลบุรี,Bo Thong,บ่อทอง,Bo Thong,บ่อทอง,13.193,101.504
20270,Chon Buri,ชลบุรี,Bo Thong,บ่อทอง,Wat Suwan,วัดสุวรรณ,13.332,101.419
20270,Chon Buri,ชลบุรี,Bo Thong,บ่อทอง,Bo Kwang Thong,บ่อกวางทอง,13.318,101.308
20270,Chon Buri,ชลบุรี,Bo Thong,บ่อทอง,That Thong,ธาตุทอง,13.259,101.389
20270,Chon Buri,ชลบุรี,Bo Thong,บ่อทอง,Kaset Suwan,เกษตรสุวรรณ,13.326,101.526
20270,Chon Buri,ชลบุรี,Bo Thong,บ่อทอง,Phluang Thong,พลวงทอง,13.217,101.626
20240,Chon Buri,ชลบุรี,Ko Chan,เกาะจันทร์,Ko Chan,เกาะจันทร์,13.403,101.421
20240,Chon Buri,ชลบุรี,Ko Chan,เกาะจันทร์,Tha Bun Mi,ท่าบุญมี,13.389,101.288
21000,Rayong,ระยอง,Mueang Rayong,เมืองระยอง,Tha Pradu,ท่าประดู่,12.672,101.266
21000,Rayong,ระยอง,Mueang Rayong,เมืองระยอง,Choeng Noen,เชิงเนิน,12.677,101.318
21000,Rayong,ระยอง,Mueang Rayong,เมืองระยอง,Taphong,ตะพง,12.653,101.364
21000,Rayong,ระยอง,Mueang Rayong,เมืองระยอง,Pak Nam,ปากน้ำ,,
21160,Rayong,ระยอง,Mueang Rayong,เมืองระยอง,Phe,เพ,12.568,101.455
21160,Rayong,ระยอง,Mueang Rayong,เมืองระยอง,Klaeng,แกลง,12.663,101.467
21000,Rayong,ระยอง,Mueang Rayong,เมืองระยอง,Ban Laeng,บ้านแลง,12.707,101.377
21000,Rayong,ระยอง,Mueang Rayong,เมืองระยอง,Na Ta Khwan,นาตาขวัญ,12.741,101.369
21000,Rayong,ระยอง,Mueang Rayong,เมืองระยอง,Noen Phra,เนินพระ,12.681,101.223
21100,Rayong,ระยอง,Mueang Rayong,เมืองระยอง,Kachet,กะเฉด,12.843,101.456
21000,Rayong,ระยอง,Mueang Rayong,เมืองระยอง,Thap Ma,ทับมา,12.708,101.247
21000,Rayong,ระยอง,Mueang Rayong,เมืองระยอง,Nam Khok,น้ำคอก,12.716,101.269
21150,Rayong,ระยอง,Mueang Rayong,เมืองระยอง,Huai Pong,ห้วยโป่ง,,
21150,Rayong,ระยอง,Mueang Rayong,เมืองระยอง,Map Ta Phut,มาบตาพุด,12.646,101.171
21100,Rayong,ระยอง,Mueang Rayong,เมืองระยอง,Samnak Thong,สำนักทอง,12.721,101.472
21130,Rayong,ระยอง,Ban Chang,บ้านฉาง,Samnak Thon,สำนักท้อน,12.804,101.066
21130,Rayong,ระยอง,Ban Chang,บ้านฉาง,Phala,พลา,12.688,101.025
21130,Rayong,ระยอง,Ban Chang,บ้านฉาง,Ban Chang,บ้านฉาง,12.732,101.076
21110,Rayong,ระยอง,Klaeng,แกลง,Thang Kwian,ทางเกวียน,12.807,101.625
21110,Rayong,ระยอง,Klaeng,แกลง,Wang Wa,วังหว้า,12.763,101.624
21110,Rayong,ระยอง,Klaeng,แกลง,Chak Don,ชากโดน,12.7,101.604
21110,Rayong,ระยอง,Klaeng,แกลง,Noen Kho,เนินฆ้อ,12.704,101.678
21190,Rayong,ระยอง,Klaeng,แกลง,Kram,กร่ำ,12.584,101.51
21190,Rayong,ระยอง,Klaeng,แกลง,Chak Phong,ชากพง,12.668,101.549
21110,Rayong,ระยอง,Klaeng,แกลง,Krasae Bon,กระแสบน,12.871,101.611
21110,Rayong,ระยอง,Klaeng,แกลง,Ban Na,บ้านนา,12.846,101.674
21110,Rayong,ระยอง,Klaeng,แกลง,Thung Khwai Kin,ทุ่งควายกิน,12.808,101.733
22160,Rayong,ระยอง,Klaeng,แกลง,Kong Din,กองดิน,12.815,101.792
21170,Rayong,ระยอง,Klaeng,แกลง,Khlong Pun,คลองปูน,12.765,101.75
21170,Rayong,ระยอง,Klaeng,แกลง,Phang Rat,พังราด,12.729,101.772
21170,Rayong,ระยอง,Klaeng,แกลง,Pak Nam Krasae,ปากน้ำกระแส,12.717,101.709
21110,Rayong,ระยอง,Klaeng,แกลง,Huai Yang,ห้วยยาง,12.812,101.533
21110,Rayong,ระยอง,Klaeng,แกลง,Song Salueng,สองสลึง,12.743,101.548
21210,Rayong,ระยอง,Wang Chan,วังจันทร์,Wang Chan,วังจันทร์,12.858,101.528
21210,Rayong,ระยอง,Wang Chan,วังจันทร์,Chum Saeng,ชุมแสง,12.956,101.526
21210,Rayong,ระยอง,Wang Chan,วังจันทร์,Pa Yup Nai,ป่ายุบใน,13.005,101.479
21210,Rayong,ระยอง,Wang Chan,วังจันทร์,Phlong Ta Iam,พลงตาเอี่ยม,12.912,101.541
21120,Rayong,ระยอง,Ban Khai,บ้านค่าย,Ban Khai,บ้านค่าย,12.775,101.304
21120,Rayong,ระยอง,Ban Khai,บ้านค่าย,Nong Lalok,หนองละลอก,12.821,101.256
21120,Rayong,ระยอง,Ban Khai,บ้านค่าย,Nong Taphan,หนองตะพาน,12.752,101.258
21120,Rayong,ระยอง,Ban Khai,บ้านค่าย,Ta Khan,ตาขัน,12.735,101.321
21120,Rayong,ระยอง,Ban Khai,บ้านค่าย,Bang But,บางบุตร,12.848,101.391
21120,Rayong,ระยอง,Ban Khai,บ้านค่าย,Nong Bua,หนองบัว,12.906,101.373
21120,Rayong,ระยอง,Ban Khai,บ้านค่าย,Chak Bok,ชากบก,12.783,101.364
21140,Rayong,ระยอง,Pluak Daeng,ปลวกแดง,Pluak Daeng,ปลวกแดง,12.978,101.226
21140,Rayong,ระยอง,Pluak Daeng,ปลวกแดง,Ta Sit,ตาสิทธิ์,13.038,101.225
21140,Rayong,ระยอง,Pluak Daeng,ปลวกแดง,Lahan,ละหาร,12.973,101.311
21140,Rayong,ระยอง,Pluak Daeng,ปลวกแดง,Maenam Khu,แม่น้ำคู้,12.908,101.23
21140,Rayong,ระยอง,Pluak Daeng,ปลวกแดง,Map Yang Phon,มาบยางพร,12.97,101.136
21140,Rayong,ระยอง,Pluak Daeng,ปลวกแดง,Nong Rai,หนองไร่,13.039,101.338
21110,Rayong,ระยอง,Khao Chamao,เขาชะเมา,Nam Pen,น้ำเป็น,12.901,101.749
21110,Rayong,ระยอง,Khao Chamao,เขาชะเมา,Huai Thap Mon,ห้วยทับมอญ,13.027,101.686
21110,Rayong,ระยอง,Khao Chamao,เขาชะเมา,Cham Kho,ชำฆ้อ,12.933,101.641
21110,Rayong,ระยอง,Khao Chamao,เขาชะเมา,Khao Noi,เขาน้อย,13.062,101.617
21180,Rayong,ระยอง,Nikhom Phatthana,นิคมพัฒนา,Nikhom Phatthana,นิคมพัฒนา,12.856,101.177
21180,Rayong,ระยอง,Nikhom Phatthana,นิคมพัฒนา,Map Kha,มาบข่า,12.782,101.193
21180,Rayong,ระยอง,Nikhom Phatthana,นิคมพัฒนา,Phana Nikhom,พนานิคม,12.902,101.135
21180,Rayong,ระยอง,Nikhom Phatthana,นิคมพัฒนา,Makham Khu,มะขามคู่,12.847,101.101
22000,Chanthaburi,จันทบุรี,Mueang Chanthaburi,เมืองจันทบุรี,Talat,ตลาด,12.591,102.087
22000,Chanthaburi,จันทบุรี,Mueang Chanthaburi,เมืองจันทบุรี,Wat Mai,วัดใหม่,12.611,102.105
22000,Chanthaburi,จันทบุรี,Mueang Chanthaburi,เมืองจันทบุรี,Khlong Narai,คลองนารายณ์,12.574,102.166
22000,Chanthaburi,จันทบุรี,Mueang Chanthaburi,เมืองจันทบุรี,Ko Khwang,เกาะขวาง,12.562,102.09
22000,Chanthaburi,จันทบุรี,Mueang Chanthaburi,เมืองจันทบุรี,Khom Bang,คมบาง,12.542,102.169
22000,Chanthaburi,จันทบุรี,Mueang Chanthaburi,เมืองจันทบุรี,Tha Chang,ท่าช้าง,12.644,102.098
22000,Chanthaburi,จันทบุรี,Mueang Chanthaburi,เมืองจันทบุรี,Chanthanimit,จันทนิมิต,12.61,102.123
22000,Chanthaburi,จันทบุรี,Mueang Chanthaburi,เมืองจันทบุรี,Bang Kacha,บางกะจะ,12.563,102.056
22000,Chanthaburi,จันทบุรี,Mueang Chanthaburi,เมืองจันทบุรี,Salaeng,แสลง,12.694,102.107
22000,Chanthaburi,จันทบุรี,Mueang Chanthaburi,เมืองจันทบุรี,Nong Bua,หนองบัว,12.534,102.101
22000,Chanthaburi,จันทบุรี,Mueang Chanthaburi,เมืองจันทบุรี,Phlapphla,พลับพลา,12.605,102.172
22110,Chanthaburi,จันทบุรี,Khlung,ขลุง,Khlung,ขลุง,12.452,102.218
22110,Chanthaburi,จันทบุรี,Khlung,ขลุง,Bo,บ่อ,12.412,102.279
22110,Chanthaburi,จันทบุรี,Khlung,ขลุง,Kwian Hak,เกวียนหัก,12.468,102.2
22110,Chanthaburi,จันทบุรี,Khlung,ขลุง,Tapon,ตะปอน,12.493,102.175
22110,Chanthaburi,จันทบุรี,Khlung,ขลุง,Bang Chan,บางชัน,12.288,102.251
22110,Chanthaburi,จันทบุรี,Khlung,ขลุง,Wan Yao,วันยาว,12.439,102.234
22110,Chanthaburi,จันทบุรี,Khlung,ขลุง,Sueng,ซึ้ง,12.487,102.288
22110,Chanthaburi,จันทบุรี,Khlung,ขลุง,Map Phai,มาบไพ,12.598,102.258
22110,Chanthaburi,จันทบุรี,Khlung,ขลุง,Wang Sappharot,วังสรรพรส,12.56,102.29
22110,Chanthaburi,จันทบุรี,Khlung,ขลุง,Trok Nong,ตรอกนอง,12.533,102.275
22110,Chanthaburi,จันทบุรี,Khlung,ขลุง,Tok Phom,ตกพรม,12.625,102.339
22150,Chanthaburi,จันทบุรี,Khlung,ขลุง,Bo Weru,บ่อเวฬุ,12.723,102.367
22120,Chanthaburi,จันทบุรี,Tha Mai,ท่าใหม่,Tha Mai,ท่าใหม่,12.628,101.985
22120,Chanthaburi,จันทบุรี,Tha Mai,ท่าใหม่,Yai Ra,ยายร้า,12.612,102.027
22120,Chanthaburi,จันทบุรี,Tha Mai,ท่าใหม่,Si Phaya,สีพยา,12.578,102.029
22120,Chanthaburi,จันทบุรี,Tha Mai,ท่าใหม่,Bo Phu,บ่อพุ,12.595,102.028
22120,Chanthaburi,จันทบุรี,Tha Mai,ท่าใหม่,Phloi Waen,พลอยแหวน,12.617,102.053
22120,Chanthaburi,จันทบุรี,Tha Mai,ท่าใหม่,Khao Wua,เขาวัว,12.637,102.035
22120,Chanthaburi,จันทบุรี,Tha Mai,ท่าใหม่,Khao Baisi,เขาบายศรี,12.74,102.061
22120,Chanthaburi,จันทบุรี,Tha Mai,ท่าใหม่,Song Phi Nong,สองพี่น้อง,12.672,101.973
22170,Chanthaburi,จันทบุรี,Tha Mai,ท่าใหม่,Thung Bencha,ทุ่งเบญจา,12.814,102.014
22170,Chanthaburi,จันทบุรี,Tha Mai,ท่าใหม่,Ramphan,รำพัน,12.669,101.914
22170,Chanthaburi,จันทบุรี,Tha Mai,ท่าใหม่,Khamong,โขมง,12.62,101.94
22120,Chanthaburi,จันทบุรี,Tha Mai,ท่าใหม่,Takat Ngao,ตะกาดเง้า,12.581,101.989
22120,Chanthaburi,จันทบุรี,Tha Mai,ท่าใหม่,Khlong Khut,คลองขุด,12.512,101.95
22170,Chanthaburi,จันทบุรี,Tha Mai,ท่าใหม่,Khao Kaeo,เขาแก้ว,12.867,101.939
22140,Chanthaburi,จันทบุรี,Pong Nam Ron,โป่งน้ำร้อน,Thap Sai,ทับไทร,12.95,102.247
22140,Chanthaburi,จันทบุรี,Pong Nam Ron,โป่งน้ำร้อน,Pong Nam Ron,โป่งน้ำร้อน,12.89,102.382
22140,Chanthaburi,จันทบุรี,Pong Nam Ron,โป่งน้ำร้อน,Nong Ta Khong,หนองตาคง,13.067,102.381
22140,Chanthaburi,จันทบุรี,Pong Nam Ron,โป่งน้ำร้อน,Thep Nimit,เทพนิมิต,13.044,102.453
22140,Chanthaburi,จันทบุรี,Pong Nam Ron,โป่งน้ำร้อน,Khlong Yai,คลองใหญ่,12.873,102.476
22150,Chanthaburi,จันทบุรี,Makham,มะขาม,Makham,มะขาม,12.677,102.187
22150,Chanthaburi,จันทบุรี,Makham,มะขาม,Tha Luang,ท่าหลวง,12.7,102.147
22150,Chanthaburi,จันทบุรี,Makham,มะขาม,Patthawi,ปัถวี,12.743,102.272
22150,Chanthaburi,จันทบุรี,Makham,มะขาม,Wang Saem,วังแซ้ม,12.756,102.156
22150,Chanthaburi,จันทบุรี,Makham,มะขาม,Chaman,ฉมัน,12.817,102.224
22150,Chanthaburi,จันทบุรี,Makham,มะขาม,Ang Khiri,อ่างคีรี,12.644,102.226
22130,Chanthaburi,จันทบุรี,Laem Sing,แหลมสิงห์,Pak Nam Laem Sing,ปากน้ำแหลมสิงห์,12.452,102.122
22130,Chanthaburi,จันทบุรี,Laem Sing,แหลมสิงห์,Ko Proet,เกาะเปริด,12.424,102.109
22130,Chanthaburi,จันทบุรี,Laem Sing,แหลมสิงห์,Nong Chim,หนองชิ่ม,12.417,102.178
22190,Chanthaburi,จันทบุรี,Laem Sing,แหลมสิงห์,Phlio,พลิ้ว,12.516,102.161
22190,Chanthaburi,จันทบุรี,Laem Sing,แหลมสิงห์,Khlong Nam Khem,คลองน้ำเค็ม,12.498,102.123
22190,Chanthaburi,จันทบุรี,Laem Sing,แหลมสิงห์,Bang Sa Kao,บางสระเก้า,12.511,102.109
22120,Chanthaburi,จันทบุรี,Laem Sing,แหลมสิงห์,Bang Kachai,บางกะไชย,12.465,102.066
22180,Chanthaburi,จันทบุรี,Soi Dao,สอยดาว,Patong,ปะตง,13.17,102.194
22180,Chanthaburi,จันทบุรี,Soi Dao,สอยดาว,Thung Khanan,ทุ่งขนาน,13.232,102.319
22180,Chanthaburi,จันทบุรี,Soi Dao,สอยดาว,Thap Chang,ทับช้าง,13.265,102.161
22180,Chanthaburi,จันทบุรี,Soi Dao,สอยดาว,Sai Khao,ทรายขาว,13.086,102.197
22180,Chanthaburi,จันทบุรี,Soi Dao,สอยดาว,Saton,สะตอน,13.174,102.371
22160,Chanthaburi,จันทบุรี,Kaeng Hang Maeo,แก่งหางแมว,Kaeng Hang Maeo,แก่งหางแมว,12.982,101.929
22160,Chanthaburi,จันทบุรี,Kaeng Hang Maeo,แก่งหางแมว,Khun Song,ขุนซ่อง,13.169,101.961
22160,Chanthaburi,จันทบุรี,Kaeng Hang Maeo,แก่งหางแมว,Sam Phi Nong,สามพี่น้อง,12.977,101.817
22160,Chanthaburi,จันทบุรี,Kaeng Hang Maeo,แก่งหางแมว,Phawa,พวา,13.105,101.791
22160,Chanthaburi,จันทบุรี,Kaeng Hang Maeo,แก่งหางแมว,Khao Wongkot,เขาวงกต,12.881,101.848
22160,Chanthaburi,จันทบุรี,Na Yai Am,นายายอาม,Na Yai Am,นายายอาม,12.782,101.847
22170,Chanthaburi,จันทบุรี,Na Yai Am,นายายอาม,Wang Tanot,วังโตนด,12.701,101.933
22170,Chanthaburi,จันทบุรี,Na Yai Am,นายายอาม,Krachae,กระแจะ,12.689,101.861
22170,Chanthaburi,จันทบุรี,Na Yai Am,นายายอาม,Sanam Chai,สนามไชย,12.625,101.874
22160,Chanthaburi,จันทบุรี,Na Yai Am,นายายอาม,Chang Kham,ช้างข้าม,12.707,101.819
22170,Chanthaburi,จันทบุรี,Na Yai Am,นายายอาม,Wang Mai,วังใหม่,12.764,101.904
22210,Chanthaburi,จันทบุรี,Khao Khitchakut,เขาคิชฌกูฏ,Chak Thai,ชากไทย,12.765,102.101
22210,Chanthaburi,จันทบุรี,Khao Khitchakut,เขาคิชฌกูฏ,Phluang,พลวง,12.822,102.106
22210,Chanthaburi,จันทบุรี,Khao Khitchakut,เขาคิชฌกูฏ,Takhian Thong,ตะเคียนทอง,12.903,102.132
22210,Chanthaburi,จันทบุรี,Khao Khitchakut,เขาคิชฌกูฏ,Khlong Phlu,คลองพลู,12.931,102.014
22210,Chanthaburi,จันทบุรี,Khao Khitchakut,เขาคิชฌกูฏ,Chanthakhlem,จันทเขลม,13.071,102.09
23000,Trat,ตราด,Mueang Trat,เมืองตราด,Bang Phra,บางพระ,,
23000,Trat,ตราด,Mueang Trat,เมืองตราด,Nong Samet,หนองเสม็ด,12.216,102.504
23000,Trat,ตราด,Mueang Trat,เมืองตราด,Nong Sano,หนองโสน,12.184,102.488
23000,Trat,ตราด,Mueang Trat,เมืองตราด,Nong Khan Song,หนองคันทรง,12.194,102.542
23000,Trat,ตราด,Mueang Trat,เมืองตราด,Huang Nam Khao,ห้วงน้ำขาว,12.143,102.518
23000,Trat,ตราด,Mueang Trat,เมืองตราด,Ao Yai,อ่าวใหญ่,12.078,102.562
23000,Trat,ตราด,Mueang Trat,เมืองตราด,Wang Krachae,วังกระแจะ,12.272,102.479
23000,Trat,ตราด,Mueang Trat,เมืองตราด,Huai Raeng,ห้วยแร้ง,12.387,102.56
23000,Trat,ตราด,Mueang Trat,เมืองตราด,Noen Sai,เนินทราย,12.283,102.547
23000,Trat,ตราด,Mueang Trat,เมืองตราด,Tha Phrik,ท่าพริก,12.243,102.589
23000,Trat,ตราด,Mueang Trat,เมืองตราด,Tha Kum,ท่ากุ่ม,12.345,102.675
23000,Trat,ตราด,Mueang Trat,เมืองตราด,Takang,ตะกาง,12.25,102.659
23000,Trat,ตราด,Mueang Trat,เมืองตราด,Chamrak,ชำราก,12.194,102.677
23000,Trat,ตราด,Mueang Trat,เมืองตราด,Laem Klat,แหลมกลัด,12.117,102.704
23110,Trat,ตราด,Khlong Yai,คลองใหญ่,Khlong Yai,คลองใหญ่,11.774,102.889
23110,Trat,ตราด,Khlong Yai,คลองใหญ่,Mai Rut,ไม้รูด,11.91,102.805
23110,Trat,ตราด,Khlong Yai,คลองใหญ่,Hat Lek,หาดเล็ก,11.699,102.909
23130,Trat,ตราด,Khao Saming,เขาสมิง,Khao Saming,เขาสมิง,12.34,102.437
23150,Trat,ตราด,Khao Saming,เขาสมิง,Saen Tung,แสนตุ้ง,12.398,102.382
23130,Trat,ตราด,Khao Saming,เขาสมิง,Wang Takhian,วังตะเคียน,12.478,102.531
